{"type":"FeatureCollection", "features": [
{"type":"Feature","geometry":{"type":"Point","coordinates":[-79.32826624,43.682342129999995]},"properties":{"id":80496257,"YEAR":2015,"STREET1":"DANFORTH AVE","STREET2":"GILLARD AVE"}},
{"type":"Feature","geometry":{"type":"Point","coordinates":[-79.30049029,43.78044537999999]},"properties":{"id":7542243,"YEAR":2012,"STREET1":"SHEPPARD AVE E","STREET2":"AMETHYST RD"}},
{"type":"Feature","geometry":{"type":"Point","coordinates":[-79.52851529000002,43.625201379999986]},"properties":{"id":80785838,"YEAR":2017,"STREET1":"KIPLING AVE","STREET2":"NORTH QUEEN ST"}},
{"type":"Feature","geometry":{"type":"Point","coordinates":[-79.33019029,43.66324538]},"properties":{"id":5219864,"YEAR":2009,"STREET1":"QUEEN ST E","STREET2":"LESLIE ST"}},
{"type":"Feature","geometry":{"type":"Point","coordinates":[-79.48295222000002,43.74635275000001]},"properties":{"id":80169594,"YEAR":2014,"STREET1":"SHEPPARD  AVE E","STREET2":"ROBERT WOODHEAD CRES"}},
{"type":"Feature","geometry":{"type":"Point","coordinates":[-79.38315210999998,43.64025839]},"properties":{"id":80788718,"YEAR":2017,"STREET1":"LAKE SHORE BLVD W","STREET2":"LOWER SIMCOE ST"}},
{"type":"Feature","geometry":{"type":"Point","coordinates":[-79.38315210999998,43.64025839]},"properties":{"id":80788719,"YEAR":2017,"STREET1":"LAKE SHORE BLVD W","STREET2":"LOWER SIMCOE ST"}},
{"type":"Feature","geometry":{"type":"Point","coordinates":[-79.24819029,43.71114538]},"properties":{"id":5219808,"YEAR":2009,"STREET1":"KINGSTON Road","STREET2":"MIDLAND Aven"}},
{"type":"Feature","geometry":{"type":"Point","coordinates":[-79.44299029,43.77384538]},"properties":{"id":5863171,"YEAR":2009,"STREET1":"FINCH AVE W","STREET2":"BATHURST ST"}},
{"type":"Feature","geometry":{"type":"Point","coordinates":[-79.48209028999999,43.63084538]},"properties":{"id":6111001,"YEAR":2010,"STREET1":"THE QUEENSWAY","STREET2":"HIGH ST"}},
{"type":"Feature","geometry":{"type":"Point","coordinates":[-79.48209028999999,43.63084538]},"properties":{"id":6111002,"YEAR":2010,"STREET1":"THE QUEENSWAY","STREET2":"HIGH ST"}},
{"type":"Feature","geometry":{"type":"Point","coordinates":[-79.34659029,43.76914537999999]},"properties":{"id":5370283,"YEAR":2008,"STREET1":"DON MILLS RD","STREET2":"HIGHWAY 401 C Boul W"}},
{"type":"Feature","geometry":{"type":"Point","coordinates":[-79.24979029,43.708745379999996]},"properties":{"id":7388472,"YEAR":2012,"STREET1":"KINGSTON Road","STREET2":"SANDOWN Aven"}},
{"type":"Feature","geometry":{"type":"Point","coordinates":[-79.31207667,43.74876363999999]},"properties":{"id":80780915,"YEAR":2017,"STREET1":"VICTORIA PARK AVE","STREET2":"CLINTWOOD GT"}},
{"type":"Feature","geometry":{"type":"Point","coordinates":[-79.39863215,43.708125669999994]},"properties":{"id":80783653,"YEAR":2017,"STREET1":"YONGE ST","STREET2":"ORCHARD VIEW BLVD"}},
{"type":"Feature","geometry":{"type":"Point","coordinates":[-79.38049029,43.67524538]},"properties":{"id":6207492,"YEAR":2010,"STREET1":"120 MOUNT PLEASANT RD","STREET2":""}},
{"type":"Feature","geometry":{"type":"Point","coordinates":[-79.32359029,43.68334538]},"properties":{"id":6703964,"YEAR":2011,"STREET1":"DANFORTH AVE","STREET2":"COXWELL AVE"}},
{"type":"Feature","geometry":{"type":"Point","coordinates":[-79.40699029,43.65474538]},"properties":{"id":5394970,"YEAR":2008,"STREET1":"BATHURST ST","STREET2":"NASSAU ST"}},
{"type":"Feature","geometry":{"type":"Point","coordinates":[-79.50589029,43.69674538000001]},"properties":{"id":5423630,"YEAR":2008,"STREET1":"DENISON RD E","STREET2":"JANE ST"}},
{"type":"Feature","geometry":{"type":"Point","coordinates":[-79.3249322,43.67159993999999]},"properties":{"id":7877948,"YEAR":2013,"STREET1":"GERRARD ST E","STREET2":"HIGHFIELD RD"}},
{"type":"Feature","geometry":{"type":"Point","coordinates":[-79.27519029,43.83104537999999]},"properties":{"id":4211228,"YEAR":2007,"STREET1":"MCCOWAN RD","STREET2":"STEELES AVE E"}},
{"type":"Feature","geometry":{"type":"Point","coordinates":[-79.41119029,43.665145380000006]},"properties":{"id":5388730,"YEAR":2008,"STREET1":"BLOOR ST W","STREET2":"BATHURST ST"}},
{"type":"Feature","geometry":{"type":"Point","coordinates":[-79.20698939000002,43.79279287999999]},"properties":{"id":80160119,"YEAR":2014,"STREET1":"KEELER BLVD","STREET2":"TWEEDROCK CRES"}},
{"type":"Feature","geometry":{"type":"Point","coordinates":[-79.52064143000001,43.77004965]},"properties":{"id":80783529,"YEAR":2017,"STREET1":"4673 JANE ST","STREET2":""}},
{"type":"Feature","geometry":{"type":"Point","coordinates":[-79.28660212,43.75186879999998]},"properties":{"id":80790894,"YEAR":2017,"STREET1":"BIRCHMOUNT RD","STREET2":"MERRYFIELD DR"}},
{"type":"Feature","geometry":{"type":"Point","coordinates":[-79.38419029,43.663845379999984]},"properties":{"id":5406741,"YEAR":2008,"STREET1":"YONGE Stre","STREET2":"BREADALBANE Stre"}},
{"type":"Feature","geometry":{"type":"Point","coordinates":[-79.50429028999999,43.70474537999999]},"properties":{"id":5221830,"YEAR":2009,"STREET1":"1749 JANE ST","STREET2":""}},
{"type":"Feature","geometry":{"type":"Point","coordinates":[-79.55772029000002,43.748775380000005]},"properties":{"id":80787872,"YEAR":2017,"STREET1":"FINCH AVENUE WEST","STREET2":"DUNCANWOODS DRIVE"}},
{"type":"Feature","geometry":{"type":"Point","coordinates":[-79.39835749,43.70672186000001]},"properties":{"id":80502173,"YEAR":2016,"STREET1":"YONGE ST","STREET2":"EGLINTON AVE E"}},
{"type":"Feature","geometry":{"type":"Point","coordinates":[-79.3616067,43.68396338]},"properties":{"id":80725616,"YEAR":2016,"STREET1":"SB DON VALLEY PKWY","STREET2":"POTTERY RD"}},
{"type":"Feature","geometry":{"type":"Point","coordinates":[-79.33759029,43.79934537999999]},"properties":{"id":4167991,"YEAR":2007,"STREET1":"343 CHEROKEE BLVD","STREET2":""}},
{"type":"Feature","geometry":{"type":"Point","coordinates":[-79.42169029000002,43.793245379999995]},"properties":{"id":5430122,"YEAR":2008,"STREET1":"31 MOORE PARK AVE","STREET2":""}},
{"type":"Feature","geometry":{"type":"Point","coordinates":[-79.44649029,43.666745379999995]},"properties":{"id":6142308,"YEAR":2010,"STREET1":"DUPONT ST","STREET2":"LANSDOWNE AVE"}},
{"type":"Feature","geometry":{"type":"Point","coordinates":[-79.46499029,43.76004538]},"properties":{"id":6702599,"YEAR":2011,"STREET1":"DUFFERIN ST","STREET2":"KENNARD AVE"}},
{"type":"Feature","geometry":{"type":"Point","coordinates":[-79.44219029,43.69744538]},"properties":{"id":7820242,"YEAR":2013,"STREET1":"EGLINTON Ave W","STREET2":"OAKWOOD Ave"}},
{"type":"Feature","geometry":{"type":"Point","coordinates":[-79.37833033,43.644187529999996]},"properties":{"id":7895529,"YEAR":2013,"STREET1":"BAY ST","STREET2":"LAKE SHORE BLVD W"}},
{"type":"Feature","geometry":{"type":"Point","coordinates":[-79.48337183,43.66856726000001]},"properties":{"id":80508323,"YEAR":2014,"STREET1":"741 RUNNYMEDE RD","STREET2":""}},
{"type":"Feature","geometry":{"type":"Point","coordinates":[-79.48337183,43.66856726000001]},"properties":{"id":80508324,"YEAR":2014,"STREET1":"741 RUNNYMEDE RD","STREET2":""}},
{"type":"Feature","geometry":{"type":"Point","coordinates":[-79.48119746,43.62285956000001]},"properties":{"id":80564311,"YEAR":2016,"STREET1":"LAKE SHORE BLVD W","STREET2":"MARINE PARADE DR"}},
{"type":"Feature","geometry":{"type":"Point","coordinates":[-79.56899653,43.65007742]},"properties":{"id":80770150,"YEAR":2017,"STREET1":"THE WEST MALL","STREET2":"HOLIDAY DR"}},
{"type":"Feature","geometry":{"type":"Point","coordinates":[-79.56899653,43.65007742]},"properties":{"id":80770151,"YEAR":2017,"STREET1":"THE WEST MALL","STREET2":"HOLIDAY DR"}},
{"type":"Feature","geometry":{"type":"Point","coordinates":[-79.39102564,43.67510184]},"properties":{"id":80181437,"YEAR":2014,"STREET1":"55 BELMONT ST","STREET2":""}},
{"type":"Feature","geometry":{"type":"Point","coordinates":[-79.39102564,43.67510184]},"properties":{"id":80181438,"YEAR":2014,"STREET1":"55 BELMONT ST","STREET2":""}},
{"type":"Feature","geometry":{"type":"Point","coordinates":[-79.42353449,43.69603689]},"properties":{"id":80777602,"YEAR":2017,"STREET1":"BATHURST ST","STREET2":"AVENAL DR"}},
{"type":"Feature","geometry":{"type":"Point","coordinates":[-79.37453089000002,43.656993469999996]},"properties":{"id":80632058,"YEAR":2016,"STREET1":"JARVIS ST","STREET2":"DUNDAS ST E"}},
{"type":"Feature","geometry":{"type":"Point","coordinates":[-79.24538813,43.75554617]},"properties":{"id":7836746,"YEAR":2013,"STREET1":"MCCOWAN RD","STREET2":"LAWRENCE AVE E"}},
{"type":"Feature","geometry":{"type":"Point","coordinates":[-79.41099028999999,43.76184538]},"properties":{"id":4195762,"YEAR":2007,"STREET1":"YONGE ST","STREET2":"SHEPPARD AVE W"}},
{"type":"Feature","geometry":{"type":"Point","coordinates":[-79.39758692,43.651843629999995]},"properties":{"id":7826572,"YEAR":2013,"STREET1":"SPADINA AVE","STREET2":"GRANGE AVE"}},
{"type":"Feature","geometry":{"type":"Point","coordinates":[-79.29692469000001,43.70224722]},"properties":{"id":80000041,"YEAR":2014,"STREET1":"DAWES RD","STREET2":"GOWER ST"}},
{"type":"Feature","geometry":{"type":"Point","coordinates":[-79.55859029,43.69424537999999]},"properties":{"id":6255317,"YEAR":2010,"STREET1":"DIXON RD","STREET2":"KIPLING AVE"}},
{"type":"Feature","geometry":{"type":"Point","coordinates":[-79.37579029,43.64404538000001]},"properties":{"id":5399137,"YEAR":2008,"STREET1":"LAKE SHORE W BLVD E","STREET2":"YONGE ST"}},
{"type":"Feature","geometry":{"type":"Point","coordinates":[-79.4676095,43.672523100000014]},"properties":{"id":80247472,"YEAR":2015,"STREET1":"ST CLAIR AVE W","STREET2":"KEELE ST"}},
{"type":"Feature","geometry":{"type":"Point","coordinates":[-79.25711451,43.75888785]},"properties":{"id":80631943,"YEAR":2014,"STREET1":"BRIMLEY RD","STREET2":"DORCOT AVE"}},
{"type":"Feature","geometry":{"type":"Point","coordinates":[-79.34798060000001,43.755549989999984]},"properties":{"id":80783698,"YEAR":2017,"STREET1":"900 YORK MILLS RD","STREET2":""}},
{"type":"Feature","geometry":{"type":"Point","coordinates":[-79.44209029,43.770345379999995]},"properties":{"id":7404650,"YEAR":2012,"STREET1":"BATHURST ST","STREET2":"MASCOT PL"}},
{"type":"Feature","geometry":{"type":"Point","coordinates":[-79.34974299,43.69804342]},"properties":{"id":80492120,"YEAR":2015,"STREET1":"DON VALLEY PARKWAY  S","STREET2":"LEASIDE BDGE"}},
{"type":"Feature","geometry":{"type":"Point","coordinates":[-79.34649029,43.76954538]},"properties":{"id":5865467,"YEAR":2009,"STREET1":"DON MILLS RD","STREET2":"HAVENBROOK BLVD"}},
{"type":"Feature","geometry":{"type":"Point","coordinates":[-79.28399029,43.747645379999994]},"properties":{"id":5302056,"YEAR":2009,"STREET1":"LAWRENCE AVE E","STREET2":"BIRCHMOUNT RD"}},
{"type":"Feature","geometry":{"type":"Point","coordinates":[-79.51624689,43.71831854]},"properties":{"id":80565672,"YEAR":2016,"STREET1":"120 BEVERLY HILLS DR","STREET2":""}},
{"type":"Feature","geometry":{"type":"Point","coordinates":[-79.37430964,43.66291005999999]},"properties":{"id":80632380,"YEAR":2016,"STREET1":"CARLTON STREET","STREET2":"HOMEWOOD AVENUE"}},
{"type":"Feature","geometry":{"type":"Point","coordinates":[-79.22832116999999,43.76749379999999]},"properties":{"id":80774628,"YEAR":2017,"STREET1":"MARKHAM RD","STREET2":"PAINTED POST DR"}},
{"type":"Feature","geometry":{"type":"Point","coordinates":[-79.30709029,43.823645379999995]},"properties":{"id":7493704,"YEAR":2012,"STREET1":"KENNEDY RD","STREET2":"STEELES AVE E"}},
{"type":"Feature","geometry":{"type":"Point","coordinates":[-79.31229029,43.79744538]},"properties":{"id":5871662,"YEAR":2009,"STREET1":"FINCH AVE E","STREET2":"BRIDLETOWNE CRCL"}},
{"type":"Feature","geometry":{"type":"Point","coordinates":[-79.18939029,43.76764537999998]},"properties":{"id":7400695,"YEAR":2012,"STREET1":"LAWRENCE AVE E","STREET2":"KINGSTON RD"}},
{"type":"Feature","geometry":{"type":"Point","coordinates":[-79.38349029,43.65154538]},"properties":{"id":6666066,"YEAR":2011,"STREET1":"QUEEN ST W","STREET2":"YORK ST"}},
{"type":"Feature","geometry":{"type":"Point","coordinates":[-79.42919029,43.64204537999999]},"properties":{"id":6652929,"YEAR":2011,"STREET1":"QUEEN Stre W","STREET2":"DUFFERIN"}},
{"type":"Feature","geometry":{"type":"Point","coordinates":[-79.35259028999998,43.66544537999999]},"properties":{"id":7644967,"YEAR":2011,"STREET1":"BROADVIEW AVE","STREET2":"GERRARD ST E"}},
{"type":"Feature","geometry":{"type":"Point","coordinates":[-79.43699029,43.64044538]},"properties":{"id":7469017,"YEAR":2012,"STREET1":"QUEEN ST W","STREET2":"LANSDOWNE AVE"}},
{"type":"Feature","geometry":{"type":"Point","coordinates":[-79.37027369,43.66049154000001]},"properties":{"id":80768590,"YEAR":2016,"STREET1":"232 SEATON ST","STREET2":""}},
{"type":"Feature","geometry":{"type":"Point","coordinates":[-79.51149029,43.68394537999999]},"properties":{"id":6601226,"YEAR":2011,"STREET1":"EGLINTON Aven W","STREET2":"SCARLETT Road"}},
{"type":"Feature","geometry":{"type":"Point","coordinates":[-79.34859029,43.66714538]},"properties":{"id":5418271,"YEAR":2008,"STREET1":"SIMPSON AVE","STREET2":"BROADVIEW AVE"}},
{"type":"Feature","geometry":{"type":"Point","coordinates":[-79.30079029,43.76114538]},"properties":{"id":5269807,"YEAR":2009,"STREET1":"WARDEN AVE","STREET2":"ELLESMERE RD"}},
{"type":"Feature","geometry":{"type":"Point","coordinates":[-79.39740381999998,43.65131720000001]},"properties":{"id":80631901,"YEAR":2014,"STREET1":"SPADINA AVE","STREET2":"SULLIVAN ST"}},
{"type":"Feature","geometry":{"type":"Point","coordinates":[-79.25879028999998,43.789645379999996]},"properties":{"id":5861928,"YEAR":2009,"STREET1":"SHEPPARD AVE E","STREET2":"MCCOWAN RD"}},
{"type":"Feature","geometry":{"type":"Point","coordinates":[-79.33439029,43.70994538]},"properties":{"id":5298729,"YEAR":2009,"STREET1":"DON MILLS RD","STREET2":"OVERLEA BLVD"}},
{"type":"Feature","geometry":{"type":"Point","coordinates":[-79.42459029,43.75844537999999]},"properties":{"id":6106783,"YEAR":2010,"STREET1":"ADDINGTON AVE","STREET2":"SHEPPARD AVE W"}},
{"type":"Feature","geometry":{"type":"Point","coordinates":[-79.44698724999999,43.63792761]},"properties":{"id":80144022,"YEAR":2013,"STREET1":"F G GARDINER XY  W","STREET2":"PARKSIDE DR"}},
{"type":"Feature","geometry":{"type":"Point","coordinates":[-79.31829462,43.72611577999999]},"properties":{"id":80565145,"YEAR":2016,"STREET1":"EGLINTON AVE E","STREET2":"SWIFT DR"}},
{"type":"Feature","geometry":{"type":"Point","coordinates":[-79.4387475,43.75672109999999]},"properties":{"id":80632189,"YEAR":2016,"STREET1":"BATHURST ST","STREET2":"COCKSFIELD AVE"}},
{"type":"Feature","geometry":{"type":"Point","coordinates":[-79.4387475,43.75672109999999]},"properties":{"id":80632190,"YEAR":2016,"STREET1":"BATHURST ST","STREET2":"COCKSFIELD AVE"}},
{"type":"Feature","geometry":{"type":"Point","coordinates":[-79.21576319,43.76080281999999]},"properties":{"id":80757199,"YEAR":2017,"STREET1":"SCARBOROUGH GOLF CLUB RD","STREET2":"LAWRENCE AVE E"}},
{"type":"Feature","geometry":{"type":"Point","coordinates":[-79.39079029,43.649145379999986]},"properties":{"id":5453647,"YEAR":2008,"STREET1":"RICHMOND ST W","STREET2":"JOHN ST"}},
{"type":"Feature","geometry":{"type":"Point","coordinates":[-79.26789029,43.689745380000005]},"properties":{"id":6280067,"YEAR":2010,"STREET1":"KINGSTON RD","STREET2":"KALMAR AVE"}},
{"type":"Feature","geometry":{"type":"Point","coordinates":[-79.37239029,43.65154538]},"properties":{"id":7812416,"YEAR":2013,"STREET1":"JARVIS ST","STREET2":"ADELAIDE ST E"}},
{"type":"Feature","geometry":{"type":"Point","coordinates":[-79.46039029,43.67414538]},"properties":{"id":4255602,"YEAR":2007,"STREET1":"ST CLAIR AVE W","STREET2":"OSLER ST"}},
{"type":"Feature","geometry":{"type":"Point","coordinates":[-79.24539029,43.75554538]},"properties":{"id":5258498,"YEAR":2009,"STREET1":"MCCOWAN Road","STREET2":"LAWRENCE Aven E"}},
{"type":"Feature","geometry":{"type":"Point","coordinates":[-79.51739029,43.66104537999999]},"properties":{"id":5274974,"YEAR":2009,"STREET1":"1144 ROYAL YORK RD","STREET2":""}},
{"type":"Feature","geometry":{"type":"Point","coordinates":[-79.4087411,43.634425719999996]},"properties":{"id":80243293,"YEAR":2015,"STREET1":"LAKE SHORE BLVD W","STREET2":"REMEMBRANCE DR"}},
{"type":"Feature","geometry":{"type":"Point","coordinates":[-79.43799029,43.753445379999995]},"properties":{"id":7514268,"YEAR":2012,"STREET1":"BATHURST ST","STREET2":"MCALLISTER RD"}},
{"type":"Feature","geometry":{"type":"Point","coordinates":[-79.36699029,43.66194538000001]},"properties":{"id":4293489,"YEAR":2007,"STREET1":"GERRARD ST E","STREET2":"PARLIAMENT ST"}},
{"type":"Feature","geometry":{"type":"Point","coordinates":[-79.51343165,43.75804861]},"properties":{"id":80158569,"YEAR":2014,"STREET1":"FINCH AVE W","STREET2":"DRIFTWOOD AVE"}},
{"type":"Feature","geometry":{"type":"Point","coordinates":[-79.55994807,43.646232209999994]},"properties":{"id":80774897,"YEAR":2017,"STREET1":"THE EAST MALL","STREET2":"BURNHAMTHORPE RD"}},
{"type":"Feature","geometry":{"type":"Point","coordinates":[-79.3853036,43.667632659999995]},"properties":{"id":80151470,"YEAR":2014,"STREET1":"7 ISABELLA ST","STREET2":""}},
{"type":"Feature","geometry":{"type":"Point","coordinates":[-79.26002131000001,43.73402364999999]},"properties":{"id":80757181,"YEAR":2017,"STREET1":"EGLINTON AVE E","STREET2":"MIDLAND AVE"}},
{"type":"Feature","geometry":{"type":"Point","coordinates":[-79.24609028999998,43.755345379999994]},"properties":{"id":4209597,"YEAR":2007,"STREET1":"LAWRENCE AVE E","STREET2":"MCCOWAN RD"}},
{"type":"Feature","geometry":{"type":"Point","coordinates":[-79.39729028999999,43.65094538]},"properties":{"id":6254162,"YEAR":2010,"STREET1":"SPADINA AVE","STREET2":"SULLIVAN ST"}},
{"type":"Feature","geometry":{"type":"Point","coordinates":[-79.25768671,43.809844569999996]},"properties":{"id":7853346,"YEAR":2013,"STREET1":"FINCH Ave E","STREET2":"MIDDLEFIELD Rd"}},
{"type":"Feature","geometry":{"type":"Point","coordinates":[-79.45887385,43.73202092999998]},"properties":{"id":80741712,"YEAR":2017,"STREET1":"WILSON AVE","STREET2":"DUFFERIN ST"}},
{"type":"Feature","geometry":{"type":"Point","coordinates":[-79.32823572000001,43.79870946999999]},"properties":{"id":5288155,"YEAR":2009,"STREET1":"3150 PHARMACY AVE","STREET2":""}},
{"type":"Feature","geometry":{"type":"Point","coordinates":[-79.34843836000002,43.69795569]},"properties":{"id":80238320,"YEAR":2015,"STREET1":"DON VALLEY PARKWAY  S","STREET2":"LEASIDE BDGE"}},
{"type":"Feature","geometry":{"type":"Point","coordinates":[-79.2543603,43.73533208999999]},"properties":{"id":80565364,"YEAR":2016,"STREET1":"EGLINTON AVE E","STREET2":"WINTER AVE"}},
{"type":"Feature","geometry":{"type":"Point","coordinates":[-79.43689029,43.749145379999995]},"properties":{"id":6130118,"YEAR":2010,"STREET1":"BATHURST ST","STREET2":"DANBY AVE"}},
{"type":"Feature","geometry":{"type":"Point","coordinates":[-79.48829029,43.764045380000006]},"properties":{"id":4202953,"YEAR":2007,"STREET1":"TANGIERS RD","STREET2":"FINCH AVE W"}},
{"type":"Feature","geometry":{"type":"Point","coordinates":[-79.18769029,43.76804538]},"properties":{"id":5247443,"YEAR":2009,"STREET1":"4175 LAWRENCE AVE E","STREET2":""}},
{"type":"Feature","geometry":{"type":"Point","coordinates":[-79.40399029,43.64714538]},"properties":{"id":5049236,"YEAR":2009,"STREET1":"QUEEN Stre W","STREET2":"BATHURST Stre"}},
{"type":"Feature","geometry":{"type":"Point","coordinates":[-79.24529029,43.75554538]},"properties":{"id":6280240,"YEAR":2010,"STREET1":"LAWRENCE AVE E","STREET2":"MCCOWAN RD"}},
{"type":"Feature","geometry":{"type":"Point","coordinates":[-79.51477442,43.62358435]},"properties":{"id":7878013,"YEAR":2013,"STREET1":"ISLINGTON AVE","STREET2":"THE QUEENSWAY"}},
{"type":"Feature","geometry":{"type":"Point","coordinates":[-79.21109029,43.76284538]},"properties":{"id":4293737,"YEAR":2007,"STREET1":"LAWRENCE AVE E","STREET2":"MOSSBANK DR"}},
{"type":"Feature","geometry":{"type":"Point","coordinates":[-79.39639029,43.687645380000006]},"properties":{"id":7375920,"YEAR":2012,"STREET1":"ST CLAIR AVE W","STREET2":"DEER PARK CRES"}},
{"type":"Feature","geometry":{"type":"Point","coordinates":[-79.40327082000002,43.707172]},"properties":{"id":80789141,"YEAR":2017,"STREET1":"EDITH DR","STREET2":"ORCHARD VIEW BLVD"}},
{"type":"Feature","geometry":{"type":"Point","coordinates":[-79.37789029,43.65824538000001]},"properties":{"id":7808286,"YEAR":2013,"STREET1":"CHURCH ST","STREET2":"GOULD ST"}},
{"type":"Feature","geometry":{"type":"Point","coordinates":[-79.29229029,43.69644537999999]},"properties":{"id":7542006,"YEAR":2012,"STREET1":"1 MASSEY Sq","STREET2":""}},
{"type":"Feature","geometry":{"type":"Point","coordinates":[-79.34249029,43.67944538]},"properties":{"id":7461123,"YEAR":2012,"STREET1":"DANFORTH AVE","STREET2":"EATON AVE"}},
{"type":"Feature","geometry":{"type":"Point","coordinates":[-79.57679029,43.63134538]},"properties":{"id":7860782,"YEAR":2013,"STREET1":"BLOOR ST W","STREET2":"MILL RD"}},
{"type":"Feature","geometry":{"type":"Point","coordinates":[-79.44609029000001,43.68554537999999]},"properties":{"id":5357528,"YEAR":2008,"STREET1":"DUFFERIN ST","STREET2":"ROGERS RD"}},
{"type":"Feature","geometry":{"type":"Point","coordinates":[-79.37749029,43.64204537999999]},"properties":{"id":6255981,"YEAR":2010,"STREET1":"HARBOUR ST","STREET2":"BAY ST"}},
{"type":"Feature","geometry":{"type":"Point","coordinates":[-79.37749029,43.64204537999999]},"properties":{"id":6255982,"YEAR":2010,"STREET1":"HARBOUR ST","STREET2":"BAY ST"}},
{"type":"Feature","geometry":{"type":"Point","coordinates":[-79.23669029,43.72144537999999]},"properties":{"id":4162906,"YEAR":2007,"STREET1":"KINGSTON RD","STREET2":"EASTVILLE AVE"}},
{"type":"Feature","geometry":{"type":"Point","coordinates":[-79.39079029,43.67314538]},"properties":{"id":5404216,"YEAR":2008,"STREET1":"BAY ST","STREET2":"DAVENPORT RD"}},
{"type":"Feature","geometry":{"type":"Point","coordinates":[-79.49009029,43.782545379999995]},"properties":{"id":5439444,"YEAR":2008,"STREET1":"STEELES AVE W","STREET2":"PETROLIA RD"}},
{"type":"Feature","geometry":{"type":"Point","coordinates":[-79.47146998,43.76781424]},"properties":{"id":80148866,"YEAR":2014,"STREET1":"FINCH AVE W","STREET2":"ALNESS ST"}},
{"type":"Feature","geometry":{"type":"Point","coordinates":[-79.46758662,43.672462059999994]},"properties":{"id":80632063,"YEAR":2016,"STREET1":"ST CLAIR AVE W","STREET2":"WESTON RD"}},
{"type":"Feature","geometry":{"type":"Point","coordinates":[-79.46758662,43.672462059999994]},"properties":{"id":80632064,"YEAR":2016,"STREET1":"ST CLAIR AVE W","STREET2":"WESTON RD"}},
{"type":"Feature","geometry":{"type":"Point","coordinates":[-79.46758662,43.672462059999994]},"properties":{"id":80632065,"YEAR":2016,"STREET1":"ST CLAIR AVE W","STREET2":"WESTON RD"}},
{"type":"Feature","geometry":{"type":"Point","coordinates":[-79.59679028999999,43.72004538]},"properties":{"id":7446417,"YEAR":2012,"STREET1":"HIGHWAY 27  N","STREET2":"HARNESS RD"}},
{"type":"Feature","geometry":{"type":"Point","coordinates":[-79.42235956,43.778243620000005]},"properties":{"id":80546835,"YEAR":2016,"STREET1":"FINCH AVE W","STREET2":"TALBOT RD"}},
{"type":"Feature","geometry":{"type":"Point","coordinates":[-79.41678248,43.784888819999985]},"properties":{"id":80770537,"YEAR":2017,"STREET1":"5799 YONGE ST","STREET2":""}},
{"type":"Feature","geometry":{"type":"Point","coordinates":[-79.26119028999999,43.75234537999999]},"properties":{"id":5338061,"YEAR":2008,"STREET1":"2701 LAWRENCE AVE E","STREET2":""}},
{"type":"Feature","geometry":{"type":"Point","coordinates":[-79.42259029,43.75894538]},"properties":{"id":5366719,"YEAR":2008,"STREET1":"SENLAC RD","STREET2":"SHEPPARD AVE W"}},
{"type":"Feature","geometry":{"type":"Point","coordinates":[-79.38749029,43.764545379999994]},"properties":{"id":5281066,"YEAR":2009,"STREET1":"BAYVIEW AVE","STREET2":"401 C W BAYVIEW RAMP"}},
{"type":"Feature","geometry":{"type":"Point","coordinates":[-79.54559029,43.72134538]},"properties":{"id":5866177,"YEAR":2009,"STREET1":"ALBION RD","STREET2":"ARMEL CRT"}},
{"type":"Feature","geometry":{"type":"Point","coordinates":[-79.36039029,43.75484537999999]},"properties":{"id":6189354,"YEAR":2010,"STREET1":"LESLIE St","STREET2":"FARMSTEAD Rd"}},
{"type":"Feature","geometry":{"type":"Point","coordinates":[-79.4058877,43.74034459999999]},"properties":{"id":7819564,"YEAR":2013,"STREET1":"MILL ST","STREET2":"YONGE ST"}},
{"type":"Feature","geometry":{"type":"Point","coordinates":[-79.48769029,43.706345379999995]},"properties":{"id":5862877,"YEAR":2009,"STREET1":"LAWRENCE Ave W","STREET2":"CULFORD Rd"}},
{"type":"Feature","geometry":{"type":"Point","coordinates":[-79.41319029000002,43.76104537999998]},"properties":{"id":6599221,"YEAR":2011,"STREET1":"SHEPPARD AVE W","STREET2":"BEECROFT RD"}},
{"type":"Feature","geometry":{"type":"Point","coordinates":[-79.32339029,43.81924537999999]},"properties":{"id":7812671,"YEAR":2013,"STREET1":"78 EAGLEVIEW CRES","STREET2":""}},
{"type":"Feature","geometry":{"type":"Point","coordinates":[-79.36372029,43.77168238]},"properties":{"id":80792532,"YEAR":2017,"STREET1":"SHEPPARD AVE E","STREET2":"LESLIE ST"}},
{"type":"Feature","geometry":{"type":"Point","coordinates":[-79.33059028999999,43.68184537999999]},"properties":{"id":7875640,"YEAR":2013,"STREET1":"DANFORTH Ave","STREET2":"LINNSMORE Cres"}},
{"type":"Feature","geometry":{"type":"Point","coordinates":[-79.41313563,43.67002447]},"properties":{"id":80622766,"YEAR":2013,"STREET1":"BATHURST ST","STREET2":"WELLS ST"}},
{"type":"Feature","geometry":{"type":"Point","coordinates":[-79.24541865,43.755538539999996]},"properties":{"id":80503039,"YEAR":2015,"STREET1":"LAWRENCE AVE E","STREET2":"MCCOWAN RD"}},
{"type":"Feature","geometry":{"type":"Point","coordinates":[-79.36479029,43.71354537999999]},"properties":{"id":6915959,"YEAR":2011,"STREET1":"LAIRD DR","STREET2":"EGLINTON AVE E"}},
{"type":"Feature","geometry":{"type":"Point","coordinates":[-79.34139029,43.65784537999998]},"properties":{"id":4230772,"YEAR":2007,"STREET1":"LOGAN AVE","STREET2":"EASTERN AVE"}},
{"type":"Feature","geometry":{"type":"Point","coordinates":[-79.42989029000002,43.700045379999985]},"properties":{"id":4259520,"YEAR":2007,"STREET1":"EGLINTON AVE W","STREET2":"CAMBERWELL RD"}},
{"type":"Feature","geometry":{"type":"Point","coordinates":[-79.48949029,43.68694538]},"properties":{"id":5440501,"YEAR":2008,"STREET1":"WESTON RD","STREET2":"EGLINTON AVE W"}},
{"type":"Feature","geometry":{"type":"Point","coordinates":[-79.28229029,43.76944537999999]},"properties":{"id":6177173,"YEAR":2010,"STREET1":"KENNEDY Rd","STREET2":"PROGRESS Ave"}},
{"type":"Feature","geometry":{"type":"Point","coordinates":[-79.49039029,43.629045379999994]},"properties":{"id":7808310,"YEAR":2013,"STREET1":"THE QUEENSWAY","STREET2":"PARK LAWN Rd"}},
{"type":"Feature","geometry":{"type":"Point","coordinates":[-79.47492609000001,43.68453558]},"properties":{"id":80179438,"YEAR":2014,"STREET1":"BICKNELL AVE","STREET2":"WESTBURY CRES"}},
{"type":"Feature","geometry":{"type":"Point","coordinates":[-79.40002832999998,43.71455724999999]},"properties":{"id":80556059,"YEAR":2015,"STREET1":"ALBERTUS AVE","STREET2":"YONGE ST"}},
{"type":"Feature","geometry":{"type":"Point","coordinates":[-79.38661585000001,43.65084418]},"properties":{"id":80503894,"YEAR":2016,"STREET1":"QUEEN ST W","STREET2":"UNIVERSITY AVE"}},
{"type":"Feature","geometry":{"type":"Point","coordinates":[-79.42895899,43.649501399999984]},"properties":{"id":80781642,"YEAR":2017,"STREET1":"DUNDAS ST W","STREET2":"GLADSTONE AVE"}},
{"type":"Feature","geometry":{"type":"Point","coordinates":[-79.35889029,43.67614537999999]},"properties":{"id":6099390,"YEAR":2010,"STREET1":"DANFORTH AVE","STREET2":"BROADVIEW AVE"}},
{"type":"Feature","geometry":{"type":"Point","coordinates":[-79.38862238,43.76930959999999]},"properties":{"id":80632400,"YEAR":2016,"STREET1":"BAYVIEW AVE","STREET2":"BAYVIEW MEWS LANE"}},
{"type":"Feature","geometry":{"type":"Point","coordinates":[-79.26799403,43.83264502]},"properties":{"id":7851071,"YEAR":2013,"STREET1":"STEELES AVE E","STREET2":"MIDDLEFIELD RD"}},
{"type":"Feature","geometry":{"type":"Point","coordinates":[-79.56859029,43.75334537999999]},"properties":{"id":4206848,"YEAR":2007,"STREET1":"ISLINGTON AVE","STREET2":"ROWNTREE MILL RD"}},
{"type":"Feature","geometry":{"type":"Point","coordinates":[-79.43839029,43.698245379999996]},"properties":{"id":5401045,"YEAR":2008,"STREET1":"EGLINTON AVE W","STREET2":"ATLAS AVE"}},
{"type":"Feature","geometry":{"type":"Point","coordinates":[-79.32319029,43.724945379999994]},"properties":{"id":5451693,"YEAR":2008,"STREET1":"EGLINTON AVE E","STREET2":"ST DENNIS EGLINTON E RAMP"}},
{"type":"Feature","geometry":{"type":"Point","coordinates":[-79.32653436999999,43.690517029999995]},"properties":{"id":80784702,"YEAR":2017,"STREET1":"COXWELL AVE","STREET2":"MORTIMER AVE"}},
{"type":"Feature","geometry":{"type":"Point","coordinates":[-79.27109028999999,43.76794537999999]},"properties":{"id":5052379,"YEAR":2009,"STREET1":"ELLESMERE RD","STREET2":"MIDLAND AVE"}},
{"type":"Feature","geometry":{"type":"Point","coordinates":[-79.18959028999998,43.76764537999998]},"properties":{"id":5304598,"YEAR":2009,"STREET1":"KINGSTON RD","STREET2":"LAWRENCE AVE E"}},
{"type":"Feature","geometry":{"type":"Point","coordinates":[-79.24639029000001,43.71154537999999]},"properties":{"id":5387391,"YEAR":2008,"STREET1":"KELSONIA AVE","STREET2":"SCARBORO CRES"}},
{"type":"Feature","geometry":{"type":"Point","coordinates":[-79.33229029,43.662845379999986]},"properties":{"id":6688159,"YEAR":2011,"STREET1":"QUEEN ST E","STREET2":"RUSHBROOKE AVE"}},
{"type":"Feature","geometry":{"type":"Point","coordinates":[-79.38619029,43.709145379999995]},"properties":{"id":6709232,"YEAR":2011,"STREET1":"EGLINTON AVE E","STREET2":"FORMAN AVE"}},
{"type":"Feature","geometry":{"type":"Point","coordinates":[-79.50639029,43.60044538]},"properties":{"id":6659314,"YEAR":2011,"STREET1":"LAKE SHORE BLVD W","STREET2":"EIGHTH ST"}},
{"type":"Feature","geometry":{"type":"Point","coordinates":[-79.18686303999999,43.77060278]},"properties":{"id":80151885,"YEAR":2014,"STREET1":"MORNINGSIDE AVE","STREET2":"KINGSTON RD"}},
{"type":"Feature","geometry":{"type":"Point","coordinates":[-79.37382136,43.648543909999994]},"properties":{"id":80790064,"YEAR":2017,"STREET1":"CHURCH ST","STREET2":"WELLINGTON ST E"}},
{"type":"Feature","geometry":{"type":"Point","coordinates":[-79.43579029,43.67994537999999]},"properties":{"id":5328687,"YEAR":2008,"STREET1":"OAKWOOD AVE","STREET2":"ST CLAIR AVE W"}},
{"type":"Feature","geometry":{"type":"Point","coordinates":[-79.40049029,43.70424538]},"properties":{"id":7414250,"YEAR":2012,"STREET1":"DUPLEX AVE","STREET2":"ANDERSON AVE"}},
{"type":"Feature","geometry":{"type":"Point","coordinates":[-79.53819029,43.73374537999999]},"properties":{"id":7443771,"YEAR":2012,"STREET1":"WESTON RD","STREET2":"SHEPPARD AVE W"}},
{"type":"Feature","geometry":{"type":"Point","coordinates":[-79.34339029,43.66914538000001]},"properties":{"id":5355502,"YEAR":2008,"STREET1":"CARLAW AVE","STREET2":"VICTOR AVE"}},
{"type":"Feature","geometry":{"type":"Point","coordinates":[-79.56319029,43.674445379999995]},"properties":{"id":6097034,"YEAR":2010,"STREET1":"MARTIN GROVE RD","STREET2":"EGLINTON AVE W"}},
{"type":"Feature","geometry":{"type":"Point","coordinates":[-79.56319029,43.674445379999995]},"properties":{"id":6097035,"YEAR":2010,"STREET1":"MARTIN GROVE RD","STREET2":"EGLINTON AVE W"}},
{"type":"Feature","geometry":{"type":"Point","coordinates":[-79.4182931,43.7423435]},"properties":{"id":7514423,"YEAR":2012,"STREET1":"22 DELHI AVE","STREET2":""}},
{"type":"Feature","geometry":{"type":"Point","coordinates":[-79.4283639,43.64152487]},"properties":{"id":7872441,"YEAR":2013,"STREET1":"DUFFERIN ST","STREET2":"JOE SHUSTER  WAY"}},
{"type":"Feature","geometry":{"type":"Point","coordinates":[-79.34718714,43.7616802]},"properties":{"id":80176726,"YEAR":2014,"STREET1":"DON MILLS RD","STREET2":"DUNCAN MILL RD"}},
{"type":"Feature","geometry":{"type":"Point","coordinates":[-79.40102015,43.70909842]},"properties":{"id":80632258,"YEAR":2016,"STREET1":"DUPLEX AVE","STREET2":"MONTGOMERY AVE"}},
{"type":"Feature","geometry":{"type":"Point","coordinates":[-79.21887629,43.743179379999994]},"properties":{"id":80786999,"YEAR":2017,"STREET1":"MARKHAM RD","STREET2":"EGLINTON AVE E"}},
{"type":"Feature","geometry":{"type":"Point","coordinates":[-79.35595331,43.66459234]},"properties":{"id":80163515,"YEAR":2014,"STREET1":"DON VALLEY PARKWAY  S","STREET2":"GERRARD ST E"}},
{"type":"Feature","geometry":{"type":"Point","coordinates":[-79.50774775,43.64815862999999]},"properties":{"id":80566416,"YEAR":2016,"STREET1":"BLOOR ST W","STREET2":"GRENVIEW BLVD N"}},
{"type":"Feature","geometry":{"type":"Point","coordinates":[-79.29469691000001,43.76257666]},"properties":{"id":80254130,"YEAR":2015,"STREET1":"ELLESMERE RD","STREET2":"PRINCIPAL RD"}},
{"type":"Feature","geometry":{"type":"Point","coordinates":[-79.29469691000001,43.76257666]},"properties":{"id":80254131,"YEAR":2015,"STREET1":"ELLESMERE RD","STREET2":"PRINCIPAL RD"}},
{"type":"Feature","geometry":{"type":"Point","coordinates":[-79.29469691000001,43.76257666]},"properties":{"id":80254132,"YEAR":2015,"STREET1":"ELLESMERE RD","STREET2":"PRINCIPAL RD"}},
{"type":"Feature","geometry":{"type":"Point","coordinates":[-79.2229806,43.760303099999994]},"properties":{"id":80255512,"YEAR":2015,"STREET1":"LAWRENCE AVE E","STREET2":"GREENHOLM CRCT"}},
{"type":"Feature","geometry":{"type":"Point","coordinates":[-79.43899029,43.668445379999994]},"properties":{"id":4144100,"YEAR":2007,"STREET1":"DUFFERIN ST","STREET2":"DUPONT ST"}},
{"type":"Feature","geometry":{"type":"Point","coordinates":[-79.43899029,43.668445379999994]},"properties":{"id":4144101,"YEAR":2007,"STREET1":"DUFFERIN ST","STREET2":"DUPONT ST"}},
{"type":"Feature","geometry":{"type":"Point","coordinates":[-79.44579029,43.657745379999994]},"properties":{"id":4167500,"YEAR":2007,"STREET1":"1369 BLOOR ST W","STREET2":""}},
{"type":"Feature","geometry":{"type":"Point","coordinates":[-79.39669029,43.70704537999999]},"properties":{"id":6201015,"YEAR":2010,"STREET1":"EGLINTON AVE E","STREET2":"HOLLY ST"}},
{"type":"Feature","geometry":{"type":"Point","coordinates":[-79.23347101,43.78075751]},"properties":{"id":80558546,"YEAR":2015,"STREET1":"MARKHAM RD","STREET2":"PROGRESS AVE"}},
{"type":"Feature","geometry":{"type":"Point","coordinates":[-79.49559029,43.751645379999985]},"properties":{"id":5355577,"YEAR":2008,"STREET1":"GRANDRAVINE DR","STREET2":"SENTINEL RD"}},
{"type":"Feature","geometry":{"type":"Point","coordinates":[-79.31619029,43.75994538]},"properties":{"id":5440701,"YEAR":2008,"STREET1":"VICTORIA PARK AVE","STREET2":"PAGET RD"}},
{"type":"Feature","geometry":{"type":"Point","coordinates":[-79.43097314999999,43.67471273999999]},"properties":{"id":80565929,"YEAR":2016,"STREET1":"DAVENPORT RD","STREET2":"OSSINGTON AVE"}},
{"type":"Feature","geometry":{"type":"Point","coordinates":[-79.18509029,43.76864538]},"properties":{"id":6157220,"YEAR":2010,"STREET1":"LAWRENCE AVE E","STREET2":"MORNINGSIDE AVE"}},
{"type":"Feature","geometry":{"type":"Point","coordinates":[-79.46599029,43.734645379999996]},"properties":{"id":5397763,"YEAR":2008,"STREET1":"PLEWES RD","STREET2":"ANCASTER RD"}},
{"type":"Feature","geometry":{"type":"Point","coordinates":[-79.21887629,43.743179379999994]},"properties":{"id":80787000,"YEAR":2017,"STREET1":"MARKHAM RD","STREET2":"EGLINTON AVE E"}},
{"type":"Feature","geometry":{"type":"Point","coordinates":[-79.41509029,43.683745380000005]},"properties":{"id":7856320,"YEAR":2013,"STREET1":"ST CLAIR AVE W","STREET2":"WELLS HILL AVE"}},
{"type":"Feature","geometry":{"type":"Point","coordinates":[-79.46764002,43.66324194]},"properties":{"id":80218099,"YEAR":2014,"STREET1":"ANNETTE ST","STREET2":"PACIFIC AVE"}},
{"type":"Feature","geometry":{"type":"Point","coordinates":[-79.44299029,43.65924538]},"properties":{"id":4188973,"YEAR":2007,"STREET1":"LANSDOWNE AVE","STREET2":"WADE AVE"}},
{"type":"Feature","geometry":{"type":"Point","coordinates":[-79.31349029,43.72604538]},"properties":{"id":5203157,"YEAR":2009,"STREET1":"EGLINTON AVE E","STREET2":"SLOANE AVE"}},
{"type":"Feature","geometry":{"type":"Point","coordinates":[-79.41697321,43.679812989999995]},"properties":{"id":80512154,"YEAR":2016,"STREET1":"BATHURST ST","STREET2":"NINA ST"}},
{"type":"Feature","geometry":{"type":"Point","coordinates":[-79.2580987,43.734519559999995]},"properties":{"id":80565835,"YEAR":2016,"STREET1":"EGLINTON AVE E","STREET2":"MIDLAND AVE"}},
{"type":"Feature","geometry":{"type":"Point","coordinates":[-79.44309029000001,43.70714538]},"properties":{"id":6096193,"YEAR":2010,"STREET1":"MARLEE AVE","STREET2":"VIEWMOUNT AVE"}},
{"type":"Feature","geometry":{"type":"Point","coordinates":[-79.31279029,43.68564538]},"properties":{"id":4405472,"YEAR":2007,"STREET1":"DANFORTH AVE","STREET2":"WOODBINE AVE"}},
{"type":"Feature","geometry":{"type":"Point","coordinates":[-79.38309029,43.65164537999999]},"properties":{"id":6202754,"YEAR":2010,"STREET1":"QUEEN ST W","STREET2":"BAY ST"}},
{"type":"Feature","geometry":{"type":"Point","coordinates":[-79.45249029,43.65634537999999]},"properties":{"id":6915251,"YEAR":2010,"STREET1":"BLOOR ST W","STREET2":"DUNDAS ST W"}},
{"type":"Feature","geometry":{"type":"Point","coordinates":[-79.37589655,43.660419069999996]},"properties":{"id":80146150,"YEAR":2013,"STREET1":"JARVIS ST","STREET2":"GERRARD ST E"}},
{"type":"Feature","geometry":{"type":"Point","coordinates":[-79.56380091,43.736533719999976]},"properties":{"id":80545164,"YEAR":2016,"STREET1":"ALBION RD","STREET2":"ISLINGTON AVE"}},
{"type":"Feature","geometry":{"type":"Point","coordinates":[-79.50859029,43.72094538]},"properties":{"id":5292071,"YEAR":2009,"STREET1":"JANE ST","STREET2":"WILSON AVE"}},
{"type":"Feature","geometry":{"type":"Point","coordinates":[-79.35225306,43.79309042]},"properties":{"id":6280065,"YEAR":2010,"STREET1":"FINCH AVE E","STREET2":"SKYMARK DR"}},
{"type":"Feature","geometry":{"type":"Point","coordinates":[-79.41559029,43.654945379999994]},"properties":{"id":4273729,"YEAR":2007,"STREET1":"COLLEGE ST","STREET2":"GRACE ST"}},
{"type":"Feature","geometry":{"type":"Point","coordinates":[-79.38159028999999,43.65794538]},"properties":{"id":6805787,"YEAR":2011,"STREET1":"YONGE ST","STREET2":"ELM ST"}},
{"type":"Feature","geometry":{"type":"Point","coordinates":[-79.25125513,43.706267909999994]},"properties":{"id":80756966,"YEAR":2017,"STREET1":"RIDGEMOOR AVE","STREET2":"KINGSTON RD"}},
{"type":"Feature","geometry":{"type":"Point","coordinates":[-79.44589029,43.79234538]},"properties":{"id":6804644,"YEAR":2011,"STREET1":"STEELES AVE W","STREET2":"BATHURST ST"}},
{"type":"Feature","geometry":{"type":"Point","coordinates":[-79.44589029,43.79234538]},"properties":{"id":6804645,"YEAR":2011,"STREET1":"STEELES AVE W","STREET2":"BATHURST ST"}},
{"type":"Feature","geometry":{"type":"Point","coordinates":[-79.38891229999999,43.670753080000004]},"properties":{"id":80168509,"YEAR":2014,"STREET1":"50 CUMBERLAND ST","STREET2":""}},
{"type":"Feature","geometry":{"type":"Point","coordinates":[-79.44189029,43.65044538]},"properties":{"id":6142299,"YEAR":2010,"STREET1":"DUNDAS ST W","STREET2":"COLLEGE ST"}},
{"type":"Feature","geometry":{"type":"Point","coordinates":[-79.36729059,43.64904364000001]},"properties":{"id":7893405,"YEAR":2013,"STREET1":"LOWER SHERBOURNE Stre","STREET2":"THE ESPLANADE"}},
{"type":"Feature","geometry":{"type":"Point","coordinates":[-79.54709029,43.60604538]},"properties":{"id":5426053,"YEAR":2008,"STREET1":"VALERMO DR","STREET2":"BROWNS LINE Driv"}},
{"type":"Feature","geometry":{"type":"Point","coordinates":[-79.54709029,43.60604538]},"properties":{"id":5426054,"YEAR":2008,"STREET1":"VALERMO DR","STREET2":"BROWNS LINE Driv"}},
{"type":"Feature","geometry":{"type":"Point","coordinates":[-79.31589029,43.69274537999999]},"properties":{"id":5807668,"YEAR":2009,"STREET1":"WOODBINE AVE","STREET2":"MORTIMER AVE"}},
{"type":"Feature","geometry":{"type":"Point","coordinates":[-79.23449029,43.74154537999999]},"properties":{"id":5365596,"YEAR":2008,"STREET1":"331 TRUDELLE St","STREET2":""}},
{"type":"Feature","geometry":{"type":"Point","coordinates":[-79.4469491,43.63791234999999]},"properties":{"id":80176785,"YEAR":2014,"STREET1":"F G GARDINER XY  W","STREET2":"PARKSIDE DR"}},
{"type":"Feature","geometry":{"type":"Point","coordinates":[-79.52871329,43.64876937999999]},"properties":{"id":80792138,"YEAR":2017,"STREET1":"DUNDAS ST W","STREET2":"CORDOVA AV"}},
{"type":"Feature","geometry":{"type":"Point","coordinates":[-79.38379029,43.65574538]},"properties":{"id":6599493,"YEAR":2011,"STREET1":"DUNDAS ST W","STREET2":"BAY ST"}},
{"type":"Feature","geometry":{"type":"Point","coordinates":[-79.42179029,43.77304538]},"properties":{"id":7873314,"YEAR":2013,"STREET1":"139 HORSHAM AVE","STREET2":""}},
{"type":"Feature","geometry":{"type":"Point","coordinates":[-79.18283472,43.76916083]},"properties":{"id":7879776,"YEAR":2013,"STREET1":"LAWRENCE Ave E","STREET2":"COLLINSGROVE Rd"}},
{"type":"Feature","geometry":{"type":"Point","coordinates":[-79.40209589,43.66304357999999]},"properties":{"id":80000019,"YEAR":2013,"STREET1":"HARBORD ST","STREET2":"SPADINA AVE"}},
{"type":"Feature","geometry":{"type":"Point","coordinates":[-79.26759029,43.731145379999994]},"properties":{"id":5293434,"YEAR":2009,"STREET1":"741 KENNEDY RD","STREET2":""}},
{"type":"Feature","geometry":{"type":"Point","coordinates":[-79.57997523,43.73891791]},"properties":{"id":80151169,"YEAR":2014,"STREET1":"KIPLING AVE","STREET2":"ALBION RD"}},
{"type":"Feature","geometry":{"type":"Point","coordinates":[-79.33219029,43.662845379999986]},"properties":{"id":5426536,"YEAR":2008,"STREET1":"1168 QUEEN ST E","STREET2":""}},
{"type":"Feature","geometry":{"type":"Point","coordinates":[-79.48969029,43.66194538000001]},"properties":{"id":6625387,"YEAR":2011,"STREET1":"JANE ST","STREET2":"ST JOHNS RD"}},
{"type":"Feature","geometry":{"type":"Point","coordinates":[-79.37009029,43.697045379999985]},"properties":{"id":7454930,"YEAR":2012,"STREET1":"MOORE AVE","STREET2":"POTTERY RD"}},
{"type":"Feature","geometry":{"type":"Point","coordinates":[-79.41809029,43.72844538]},"properties":{"id":7375692,"YEAR":2012,"STREET1":"AVENUE RD","STREET2":"FAIRLAWN AVE"}},
{"type":"Feature","geometry":{"type":"Point","coordinates":[-79.32223902,43.77535589]},"properties":{"id":80789133,"YEAR":2017,"STREET1":"SHEPPARD AVE E","STREET2":"VICTORIA PARK AVE"}},
{"type":"Feature","geometry":{"type":"Point","coordinates":[-79.32979029,43.68204538]},"properties":{"id":5373444,"YEAR":2008,"STREET1":"DANFORTH AVE","STREET2":"LINNSMORE CRES"}},
{"type":"Feature","geometry":{"type":"Point","coordinates":[-79.26509029,43.751545379999996]},"properties":{"id":5419807,"YEAR":2008,"STREET1":"LAWRENCE AVE E","STREET2":"MIDLAND AVE"}},
{"type":"Feature","geometry":{"type":"Point","coordinates":[-79.44539029,43.67834538000001]},"properties":{"id":6098717,"YEAR":2010,"STREET1":"ST CLAIR GDNS","STREET2":"NORTON AVE"}},
{"type":"Feature","geometry":{"type":"Point","coordinates":[-79.47389029,43.69044538]},"properties":{"id":5430712,"YEAR":2008,"STREET1":"EGLINTON AVE W","STREET2":"KEELE ST"}},
{"type":"Feature","geometry":{"type":"Point","coordinates":[-79.34102259000001,43.75644643999998]},"properties":{"id":80565388,"YEAR":2016,"STREET1":"8 SILVERDALE CRES","STREET2":""}},
{"type":"Feature","geometry":{"type":"Point","coordinates":[-79.21559029,43.74394537999999]},"properties":{"id":6104310,"YEAR":2010,"STREET1":"EGLINTON Aven E","STREET2":"CEDAR Driv"}},
{"type":"Feature","geometry":{"type":"Point","coordinates":[-79.26698695,43.72994574]},"properties":{"id":7881017,"YEAR":2013,"STREET1":"KENNEDY RD","STREET2":"KENMARK BLVD"}},
{"type":"Feature","geometry":{"type":"Point","coordinates":[-79.29676446999999,43.68928868999999]},"properties":{"id":80560200,"YEAR":2015,"STREET1":"DAWES RD","STREET2":"DANFORTH AVE"}},
{"type":"Feature","geometry":{"type":"Point","coordinates":[-79.42329029,43.64934538]},"properties":{"id":4157885,"YEAR":2007,"STREET1":"DUNDAS ST W","STREET2":"GROVE AVE"}},
{"type":"Feature","geometry":{"type":"Point","coordinates":[-79.37669029000001,43.662445379999994]},"properties":{"id":5346442,"YEAR":2008,"STREET1":"CARLTON St","STREET2":"JARVIS St"}},
{"type":"Feature","geometry":{"type":"Point","coordinates":[-79.17559028999999,43.80734538]},"properties":{"id":6616379,"YEAR":2011,"STREET1":"SHEPPARD Aven E","STREET2":"IDAGROVE Gate"}},
{"type":"Feature","geometry":{"type":"Point","coordinates":[-79.35289029,43.68754538]},"properties":{"id":7431494,"YEAR":2012,"STREET1":"LOGAN AVE","STREET2":"GOWAN AVE"}},
{"type":"Feature","geometry":{"type":"Point","coordinates":[-79.41359339,43.77218588]},"properties":{"id":80772520,"YEAR":2017,"STREET1":"YONGE ST","STREET2":"NORTON AVE"}},
{"type":"Feature","geometry":{"type":"Point","coordinates":[-79.20022211,43.818915919999995]},"properties":{"id":80771579,"YEAR":2017,"STREET1":"MORNINGVIEW TRL","STREET2":"BLACKHURST CRT"}},
{"type":"Feature","geometry":{"type":"Point","coordinates":[-79.31177912,43.74789007]},"properties":{"id":80779713,"YEAR":2017,"STREET1":"LYNVALLEY CRES","STREET2":"VICTORIA PARK AVE"}},
{"type":"Feature","geometry":{"type":"Point","coordinates":[-79.27294529,43.77296438]},"properties":{"id":80792628,"YEAR":2017,"STREET1":"PROGRESS AV","STREET2":"MIDLAND AV"}},
{"type":"Feature","geometry":{"type":"Point","coordinates":[-79.34449029,43.740845379999996]},"properties":{"id":6596719,"YEAR":2011,"STREET1":"DON MILLS RD","STREET2":"THE DONWAY  E"}},
{"type":"Feature","geometry":{"type":"Point","coordinates":[-79.38539029,43.65974537999999]},"properties":{"id":7535654,"YEAR":2012,"STREET1":"BAY ST","STREET2":"HAYTER ST"}},
{"type":"Feature","geometry":{"type":"Point","coordinates":[-79.33281336,43.66265448]},"properties":{"id":80162482,"YEAR":2014,"STREET1":"QUEEN ST E","STREET2":"JONES AVE"}},
{"type":"Feature","geometry":{"type":"Point","coordinates":[-79.28329029,43.77174537999999]},"properties":{"id":5254018,"YEAR":2009,"STREET1":"KENNEDY RD","STREET2":"ANTRIM CRES"}},
{"type":"Feature","geometry":{"type":"Point","coordinates":[-79.41388331,43.70346028999999]},"properties":{"id":80179134,"YEAR":2014,"STREET1":"EGLINGTON AVE","STREET2":"HEDDINGTON AVE"}},
{"type":"Feature","geometry":{"type":"Point","coordinates":[-79.41388331,43.70346028999999]},"properties":{"id":80179135,"YEAR":2014,"STREET1":"EGLINGTON AVE","STREET2":"HEDDINGTON AVE"}},
{"type":"Feature","geometry":{"type":"Point","coordinates":[-79.47449029,43.67094538]},"properties":{"id":7787522,"YEAR":2013,"STREET1":"ST CLAIR AVE W","STREET2":"MONDOVI GT"}},
{"type":"Feature","geometry":{"type":"Point","coordinates":[-79.44819029,43.77284537999999]},"properties":{"id":5456378,"YEAR":2008,"STREET1":"FINCH AVE W","STREET2":"VIRGILWOOD DR"}},
{"type":"Feature","geometry":{"type":"Point","coordinates":[-79.48154841,43.724372470000006]},"properties":{"id":80632402,"YEAR":2016,"STREET1":"KEELE ST","STREET2":"401 C W KEELE RAMP ST"}},
{"type":"Feature","geometry":{"type":"Point","coordinates":[-79.44899029,43.70324537999999]},"properties":{"id":5320189,"YEAR":2008,"STREET1":"LOCKSLEY AVE","STREET2":"BRIAR HILL AVE"}},
{"type":"Feature","geometry":{"type":"Point","coordinates":[-79.28119288,43.814246729999994]},"properties":{"id":6672593,"YEAR":2011,"STREET1":"BRIMLEY RD","STREET2":"DANJOHN CRES"}},
{"type":"Feature","geometry":{"type":"Point","coordinates":[-79.47489029,43.689745380000005]},"properties":{"id":6811179,"YEAR":2011,"STREET1":"1971 KEELE St","STREET2":""}},
{"type":"Feature","geometry":{"type":"Point","coordinates":[-79.34209029000002,43.73224538]},"properties":{"id":7559880,"YEAR":2012,"STREET1":"DON MILLS RD","STREET2":"THE DONWAY  E"}},
{"type":"Feature","geometry":{"type":"Point","coordinates":[-79.50963984,43.73960073999999]},"properties":{"id":80681706,"YEAR":2017,"STREET1":"SHEPPARD AVE W","STREET2":"MAGELLAN DR"}},
{"type":"Feature","geometry":{"type":"Point","coordinates":[-79.50963984,43.73960073999999]},"properties":{"id":80681738,"YEAR":2017,"STREET1":"SHEPPARD AVE W","STREET2":"MAGELLAN DR"}},
{"type":"Feature","geometry":{"type":"Point","coordinates":[-79.3694192,43.65445288]},"properties":{"id":80772494,"YEAR":2017,"STREET1":"QUEEN ST E","STREET2":"SHERBOURNE ST"}},
{"type":"Feature","geometry":{"type":"Point","coordinates":[-79.52429029,43.75594538]},"properties":{"id":4217302,"YEAR":2007,"STREET1":"OAKDALE RD","STREET2":"FINCH AVE W"}},
{"type":"Feature","geometry":{"type":"Point","coordinates":[-79.43599028999999,43.63714538]},"properties":{"id":4241456,"YEAR":2007,"STREET1":"JAMESON AVE","STREET2":"KING ST W"}},
{"type":"Feature","geometry":{"type":"Point","coordinates":[-79.24808131000002,43.73668631]},"properties":{"id":7883553,"YEAR":2013,"STREET1":"EGLINTON AVE E","STREET2":"BRIMLEY RD"}},
{"type":"Feature","geometry":{"type":"Point","coordinates":[-79.46332178,43.68276175]},"properties":{"id":80180799,"YEAR":2014,"STREET1":"SILVERTHORN AVE","STREET2":"ROGERS RD"}},
{"type":"Feature","geometry":{"type":"Point","coordinates":[-79.34279261,43.6676441]},"properties":{"id":7870081,"YEAR":2013,"STREET1":"GERRARD ST E","STREET2":"CARLAW AVE"}},
{"type":"Feature","geometry":{"type":"Point","coordinates":[-79.42149029,43.67164538]},"properties":{"id":6596455,"YEAR":2011,"STREET1":"DUPONT ST","STREET2":"CHRISTIE ST"}},
{"type":"Feature","geometry":{"type":"Point","coordinates":[-79.37329029,43.789145379999994]},"properties":{"id":6193126,"YEAR":2010,"STREET1":"PINEWAY BLVD","STREET2":"FINCH AVE E"}},
{"type":"Feature","geometry":{"type":"Point","coordinates":[-79.44409029,43.79084538]},"properties":{"id":6710362,"YEAR":2011,"STREET1":"GREENWIN VILLAGE Road","STREET2":"BISON Driv"}},
{"type":"Feature","geometry":{"type":"Point","coordinates":[-79.33279029000002,43.66264538]},"properties":{"id":7645104,"YEAR":2012,"STREET1":"QUEEN St E","STREET2":"JONES Ave"}},
{"type":"Feature","geometry":{"type":"Point","coordinates":[-79.41189029,43.79304538000001]},"properties":{"id":5808093,"YEAR":2009,"STREET1":"CENTRE AVE","STREET2":"WILLOWDALE AVE"}},
{"type":"Feature","geometry":{"type":"Point","coordinates":[-79.42589029,43.70334538]},"properties":{"id":7467020,"YEAR":2012,"STREET1":"VESTA DR","STREET2":"BATHURST ST"}},
{"type":"Feature","geometry":{"type":"Point","coordinates":[-79.44320307,43.7163082]},"properties":{"id":80000053,"YEAR":2014,"STREET1":"LAWRENCE AVE W","STREET2":"ALLEN X N LAWRENCE RAMP"}},
{"type":"Feature","geometry":{"type":"Point","coordinates":[-79.41639029,43.78324537999998]},"properties":{"id":5414745,"YEAR":2008,"STREET1":"YONGE ST","STREET2":"BISHOP AVE"}},
{"type":"Feature","geometry":{"type":"Point","coordinates":[-79.50419029,43.779245380000006]},"properties":{"id":7542070,"YEAR":2012,"STREET1":"STEELES AVE W","STREET2":"FOUNDERS RD"}},
{"type":"Feature","geometry":{"type":"Point","coordinates":[-79.55492029,43.62899359]},"properties":{"id":7834268,"YEAR":2013,"STREET1":"DUNDAS ST W","STREET2":"CLOVERDALE MALL"}},
{"type":"Feature","geometry":{"type":"Point","coordinates":[-79.27518853999999,43.83103521999999]},"properties":{"id":7846751,"YEAR":2013,"STREET1":"MCCOWAN RD","STREET2":"STEELES AVE E"}},
{"type":"Feature","geometry":{"type":"Point","coordinates":[-79.31399029,43.75434537999998]},"properties":{"id":5399552,"YEAR":2008,"STREET1":"VICTORIA PARK AVE","STREET2":"CASSANDRA BLVD"}},
{"type":"Feature","geometry":{"type":"Point","coordinates":[-79.23599029,43.706145379999995]},"properties":{"id":4185407,"YEAR":2007,"STREET1":"BRIMLEY RD","STREET2":"BLUFFERS PARK"}},
{"type":"Feature","geometry":{"type":"Point","coordinates":[-79.49419029,43.74304537999999]},"properties":{"id":5403464,"YEAR":2008,"STREET1":"SEELEY DR","STREET2":"SHEPPARD AVE W"}},
{"type":"Feature","geometry":{"type":"Point","coordinates":[-79.41609029,43.66424538]},"properties":{"id":5265151,"YEAR":2009,"STREET1":"MANNING AVE","STREET2":"BLOOR ST W"}},
{"type":"Feature","geometry":{"type":"Point","coordinates":[-79.36076746,43.8111759]},"properties":{"id":7559390,"YEAR":2012,"STREET1":"DON MILLS RD","STREET2":"STEELES AVE E"}},
{"type":"Feature","geometry":{"type":"Point","coordinates":[-79.44439326,43.68124349999999]},"properties":{"id":7542116,"YEAR":2012,"STREET1":"DUFFERIN ST","STREET2":"CLOVERLAWN AVE"}},
{"type":"Feature","geometry":{"type":"Point","coordinates":[-79.56409029000001,43.648545379999995]},"properties":{"id":7798510,"YEAR":2013,"STREET1":"HIGHWAY 427 C  N","STREET2":"BURNHAMTHORPE RD"}},
{"type":"Feature","geometry":{"type":"Point","coordinates":[-79.37853632,43.65378148999999]},"properties":{"id":80562735,"YEAR":2016,"STREET1":"VICTORIA ST","STREET2":"SHUTER ST"}},
{"type":"Feature","geometry":{"type":"Point","coordinates":[-79.55969028999999,43.64104538]},"properties":{"id":5402157,"YEAR":2008,"STREET1":"VALHALLA INN RD","STREET2":"427 C N VALHALLA INN RAMP"}},
{"type":"Feature","geometry":{"type":"Point","coordinates":[-79.41437922,43.673133449999995]},"properties":{"id":80152256,"YEAR":2014,"STREET1":"DUPONT ST","STREET2":"BATHURST ST"}},
{"type":"Feature","geometry":{"type":"Point","coordinates":[-79.39738856,43.67668874999999]},"properties":{"id":80632318,"YEAR":2016,"STREET1":"AVENUE RD","STREET2":"ROXBOROUGH ST W"}},
{"type":"Feature","geometry":{"type":"Point","coordinates":[-79.28079029,43.681645380000006]},"properties":{"id":6704557,"YEAR":2011,"STREET1":"KINGSTON RD","STREET2":"BLANTYRE AVE"}},
{"type":"Feature","geometry":{"type":"Point","coordinates":[-79.37092218999999,43.64821585]},"properties":{"id":7850016,"YEAR":2013,"STREET1":"LOWER JARVIS St","STREET2":"THE ESPLANADE"}},
{"type":"Feature","geometry":{"type":"Point","coordinates":[-79.37279139,43.652633269999995]},"properties":{"id":80772697,"YEAR":2017,"STREET1":"RICHMOND ST E","STREET2":"JARVIS ST"}},
{"type":"Feature","geometry":{"type":"Point","coordinates":[-79.52539029000002,43.77334538]},"properties":{"id":6243093,"YEAR":2010,"STREET1":"349 HULLMAR DR","STREET2":""}},
{"type":"Feature","geometry":{"type":"Point","coordinates":[-79.21169029,43.762645379999995]},"properties":{"id":5206039,"YEAR":2009,"STREET1":"LAWRENCE Aven E","STREET2":"MOSSBANK Driv"}},
{"type":"Feature","geometry":{"type":"Point","coordinates":[-79.28019028999998,43.828045379999985]},"properties":{"id":7390035,"YEAR":2012,"STREET1":"GOLDHAWK TRL","STREET2":"STRAWBERRY HILLS DR"}},
{"type":"Feature","geometry":{"type":"Point","coordinates":[-79.28019028999998,43.828045379999985]},"properties":{"id":7390036,"YEAR":2012,"STREET1":"GOLDHAWK TRL","STREET2":"STRAWBERRY HILLS DR"}},
{"type":"Feature","geometry":{"type":"Point","coordinates":[-79.41639029,43.779545379999995]},"properties":{"id":7455132,"YEAR":2012,"STREET1":"FINCH AVE W","STREET2":"YONGE ST"}},
{"type":"Feature","geometry":{"type":"Point","coordinates":[-79.37092218999999,43.64821585]},"properties":{"id":80175297,"YEAR":2014,"STREET1":"LOWER JARVIS ST","STREET2":"THE ESPLANADE"}},
{"type":"Feature","geometry":{"type":"Point","coordinates":[-79.39149029,43.78204538]},"properties":{"id":7462017,"YEAR":2012,"STREET1":"3133 BAYVIEW AVE","STREET2":"BYNG AVE"}},
{"type":"Feature","geometry":{"type":"Point","coordinates":[-79.33699029,43.79354537999999]},"properties":{"id":5310786,"YEAR":2008,"STREET1":"FINCH AVE E","STREET2":"CHEROKEE BLVD"}},
{"type":"Feature","geometry":{"type":"Point","coordinates":[-79.4129983,43.68942220999999]},"properties":{"id":80235411,"YEAR":2015,"STREET1":"THELMA AVE","STREET2":"SPADINA RD"}},
{"type":"Feature","geometry":{"type":"Point","coordinates":[-79.42889028999998,43.638645379999986]},"properties":{"id":4181100,"YEAR":2007,"STREET1":"KING ST W","STREET2":"GWYNNE AVE"}},
{"type":"Feature","geometry":{"type":"Point","coordinates":[-79.40629029000002,43.64594537999999]},"properties":{"id":4239958,"YEAR":2007,"STREET1":"TECUMSETH ST","STREET2":"RICHMOND ST W"}},
{"type":"Feature","geometry":{"type":"Point","coordinates":[-79.3315774,43.788795069999985]},"properties":{"id":80253826,"YEAR":2015,"STREET1":"VAN HORNE AVE","STREET2":"TAVERLY RD"}},
{"type":"Feature","geometry":{"type":"Point","coordinates":[-79.28189029,43.793245379999995]},"properties":{"id":5445991,"YEAR":2008,"STREET1":"MIDLAND AVE","STREET2":"HAVENDALE RD"}},
{"type":"Feature","geometry":{"type":"Point","coordinates":[-79.44649134,43.71564444]},"properties":{"id":5792840,"YEAR":2009,"STREET1":"LAWRENCE AVE W","STREET2":"MARLEE AVE"}},
{"type":"Feature","geometry":{"type":"Point","coordinates":[-79.37489029,43.65114538]},"properties":{"id":4154026,"YEAR":2007,"STREET1":"CHURCH ST","STREET2":"ADELAIDE ST E"}},
{"type":"Feature","geometry":{"type":"Point","coordinates":[-79.28891382,43.67274817]},"properties":{"id":80504003,"YEAR":2016,"STREET1":"3 SPRUCE HILL RD","STREET2":""}},
{"type":"Feature","geometry":{"type":"Point","coordinates":[-79.33699029,43.81674538]},"properties":{"id":4223131,"YEAR":2007,"STREET1":"STEELES AVE E","STREET2":"VICTORIA PARK AVE"}},
{"type":"Feature","geometry":{"type":"Point","coordinates":[-79.33699029,43.81674538]},"properties":{"id":4223133,"YEAR":2007,"STREET1":"STEELES AVE E","STREET2":"VICTORIA PARK AVE"}},
{"type":"Feature","geometry":{"type":"Point","coordinates":[-79.33479029,43.71094538]},"properties":{"id":4250202,"YEAR":2007,"STREET1":"DON MILLS RD","STREET2":"OVERLEA BLVD"}},
{"type":"Feature","geometry":{"type":"Point","coordinates":[-79.33479029,43.71094538]},"properties":{"id":4250203,"YEAR":2007,"STREET1":"DON MILLS RD","STREET2":"OVERLEA BLVD"}},
{"type":"Feature","geometry":{"type":"Point","coordinates":[-79.31299029,43.75144537999999]},"properties":{"id":6255155,"YEAR":2010,"STREET1":"VICTORIA PARK AVE","STREET2":"ROWENA DR"}},
{"type":"Feature","geometry":{"type":"Point","coordinates":[-79.44185267,43.6681362]},"properties":{"id":80253637,"YEAR":2015,"STREET1":"1245 DUPONT ST","STREET2":""}},
{"type":"Feature","geometry":{"type":"Point","coordinates":[-79.37029029,43.658445379999996]},"properties":{"id":4240661,"YEAR":2007,"STREET1":"DUNDAS ST E","STREET2":"SHERBOURNE ST"}},
{"type":"Feature","geometry":{"type":"Point","coordinates":[-79.45189029000001,43.75264538]},"properties":{"id":7799837,"YEAR":2013,"STREET1":"SHEPPARD AVE W","STREET2":"FAYWOOD BLVD"}},
{"type":"Feature","geometry":{"type":"Point","coordinates":[-79.27519029,43.82224538]},"properties":{"id":4192800,"YEAR":2007,"STREET1":"391 ALTON TOWERS CRCL","STREET2":""}},
{"type":"Feature","geometry":{"type":"Point","coordinates":[-79.41739029,43.70274538]},"properties":{"id":5454146,"YEAR":2008,"STREET1":"EGLINTON AVE W","STREET2":"CHAPLIN CRES"}},
{"type":"Feature","geometry":{"type":"Point","coordinates":[-79.29169029,43.82724538]},"properties":{"id":7775674,"YEAR":2013,"STREET1":"STEELES AVE E","STREET2":"ASHCOTT ST"}},
{"type":"Feature","geometry":{"type":"Point","coordinates":[-79.54007349,43.63610037]},"properties":{"id":80485259,"YEAR":2016,"STREET1":"DUNDAS ST W","STREET2":"POPLAR AVE"}},
{"type":"Feature","geometry":{"type":"Point","coordinates":[-79.37584315,43.79874762]},"properties":{"id":80632236,"YEAR":2016,"STREET1":"CUMMER AVE","STREET2":"PINEWAY BLVD"}},
{"type":"Feature","geometry":{"type":"Point","coordinates":[-79.38609028999998,43.79184537999999]},"properties":{"id":6805773,"YEAR":2011,"STREET1":"SNOWCREST AVE","STREET2":"WYVERN RD"}},
{"type":"Feature","geometry":{"type":"Point","coordinates":[-79.45999029,43.67414538]},"properties":{"id":7791492,"YEAR":2013,"STREET1":"ST CLAIR AVE W","STREET2":"HOUNSLOW HEATH RD"}},
{"type":"Feature","geometry":{"type":"Point","coordinates":[-79.32088099,43.68393286000001]},"properties":{"id":7890605,"YEAR":2013,"STREET1":"DANFORTH Ave","STREET2":"WOODINGTON Ave"}},
{"type":"Feature","geometry":{"type":"Point","coordinates":[-79.28799029,43.67254538000001]},"properties":{"id":6134837,"YEAR":2010,"STREET1":"QUEEN Stre E","STREET2":"BEECH Aven"}},
{"type":"Feature","geometry":{"type":"Point","coordinates":[-79.38109028999999,43.65664538]},"properties":{"id":4197027,"YEAR":2007,"STREET1":"YONGE ST","STREET2":"DUNDAS ST W"}},
{"type":"Feature","geometry":{"type":"Point","coordinates":[-79.32659029,43.66754538000001]},"properties":{"id":5213058,"YEAR":2009,"STREET1":"GREENWOOD Aven","STREET2":"DUNDAS Stre E"}},
{"type":"Feature","geometry":{"type":"Point","coordinates":[-79.50559626,43.72137793]},"properties":{"id":80156398,"YEAR":2014,"STREET1":"1505 WILSON AVE","STREET2":""}},
{"type":"Feature","geometry":{"type":"Point","coordinates":[-79.49419029,43.75044538000001]},"properties":{"id":6103998,"YEAR":2010,"STREET1":"SENTINEL Road","STREET2":"STILECROFT Driv"}},
{"type":"Feature","geometry":{"type":"Point","coordinates":[-79.22419028999998,43.80444537999999]},"properties":{"id":7408914,"YEAR":2012,"STREET1":"TAPSCOTT Road","STREET2":"WASHBURN Way"}},
{"type":"Feature","geometry":{"type":"Point","coordinates":[-79.41094598999999,43.704074459999994]},"properties":{"id":80493599,"YEAR":2015,"STREET1":"EGLINTON AVE W","STREET2":"ELMSTHORPE AVE"}},
{"type":"Feature","geometry":{"type":"Point","coordinates":[-79.29619029,43.709345379999995]},"properties":{"id":4294090,"YEAR":2007,"STREET1":"VICTORIA PARK Aven","STREET2":"ST CLAIR Aven E"}},
{"type":"Feature","geometry":{"type":"Point","coordinates":[-79.31299029,43.75144537999999]},"properties":{"id":6255156,"YEAR":2010,"STREET1":"VICTORIA PARK AVE","STREET2":"ROWENA DR"}},
{"type":"Feature","geometry":{"type":"Point","coordinates":[-79.23209029000002,43.74024537999999]},"properties":{"id":5372746,"YEAR":2008,"STREET1":"EGLINTON AVE E","STREET2":"BELLAMY RD N"}},
{"type":"Feature","geometry":{"type":"Point","coordinates":[-79.23209029000002,43.74024537999999]},"properties":{"id":5372747,"YEAR":2008,"STREET1":"EGLINTON AVE E","STREET2":"BELLAMY RD N"}},
{"type":"Feature","geometry":{"type":"Point","coordinates":[-79.42589029,43.70334538]},"properties":{"id":7775832,"YEAR":2013,"STREET1":"BATHURST ST","STREET2":"VESTA DR"}},
{"type":"Feature","geometry":{"type":"Point","coordinates":[-79.457615,43.7269245]},"properties":{"id":80628845,"YEAR":2014,"STREET1":"DUFFERIN ST","STREET2":"BRIDGELAND AVE"}},
{"type":"Feature","geometry":{"type":"Point","coordinates":[-79.38669029,43.69924538]},"properties":{"id":5391374,"YEAR":2008,"STREET1":"BALLIOL ST","STREET2":"MOUNT PLEASANT RD"}},
{"type":"Feature","geometry":{"type":"Point","coordinates":[-79.38019029,43.63994538]},"properties":{"id":5231821,"YEAR":2009,"STREET1":"QUEENS QUAY W","STREET2":"YORK ST"}},
{"type":"Feature","geometry":{"type":"Point","coordinates":[-79.38439028999998,43.643545379999985]},"properties":{"id":5808370,"YEAR":2009,"STREET1":"LOWER SIMCOE ST","STREET2":"BREMNER BLVD"}},
{"type":"Feature","geometry":{"type":"Point","coordinates":[-79.30179028999999,43.688145379999995]},"properties":{"id":6217629,"YEAR":2010,"STREET1":"DANFORTH AVE","STREET2":"MAIN ST"}},
{"type":"Feature","geometry":{"type":"Point","coordinates":[-79.38476954,43.67209967]},"properties":{"id":80632394,"YEAR":2016,"STREET1":"PARK RD","STREET2":"CHURCH ST"}},
{"type":"Feature","geometry":{"type":"Point","coordinates":[-79.43339029,43.65464538]},"properties":{"id":4144471,"YEAR":2007,"STREET1":"DUFFERIN ST","STREET2":"SYLVAN AVE"}},
{"type":"Feature","geometry":{"type":"Point","coordinates":[-79.43659029,43.79444537999999]},"properties":{"id":4181281,"YEAR":2007,"STREET1":"STEELES AVE W","STREET2":"CACTUS AVE"}},
{"type":"Feature","geometry":{"type":"Point","coordinates":[-79.40599029,43.672145379999996]},"properties":{"id":7494796,"YEAR":2012,"STREET1":"BERNARD AVE","STREET2":"SPADINA RD"}},
{"type":"Feature","geometry":{"type":"Point","coordinates":[-79.35199028999999,43.78134538]},"properties":{"id":7788759,"YEAR":2013,"STREET1":"DON MILLS RD W","STREET2":"GOODVIEW RD"}},
{"type":"Feature","geometry":{"type":"Point","coordinates":[-79.30059029,43.71974538]},"properties":{"id":7439775,"YEAR":2012,"STREET1":"VICTORIA PARK AVE","STREET2":"SUNRISE AVE"}},
{"type":"Feature","geometry":{"type":"Point","coordinates":[-79.28509029,43.68334538]},"properties":{"id":7842618,"YEAR":2013,"STREET1":"VICTORIA PARK AVE","STREET2":"WOODALE AVE"}},
{"type":"Feature","geometry":{"type":"Point","coordinates":[-79.47159029,43.68214537999999]},"properties":{"id":7860897,"YEAR":2013,"STREET1":"KEELE St","STREET2":"ROGERS Rd"}},
{"type":"Feature","geometry":{"type":"Point","coordinates":[-79.38976679,43.65820273]},"properties":{"id":80143893,"YEAR":2013,"STREET1":"610 UNIVERSITY AVE","STREET2":""}},
{"type":"Feature","geometry":{"type":"Point","coordinates":[-79.41968928,43.73412282999999]},"properties":{"id":80241903,"YEAR":2015,"STREET1":"AVENUE RD","STREET2":"FELBRIGG AVE"}},
{"type":"Feature","geometry":{"type":"Point","coordinates":[-79.24171839,43.77433355999999]},"properties":{"id":80777175,"YEAR":2017,"STREET1":"ELLESMERE RD","STREET2":"BELLAMY RD N"}},
{"type":"Feature","geometry":{"type":"Point","coordinates":[-79.41399012,43.77370795]},"properties":{"id":80787361,"YEAR":2017,"STREET1":"YONGE ST","STREET2":"CHURCH AVE"}},
{"type":"Feature","geometry":{"type":"Point","coordinates":[-79.35227595,43.79315145999999]},"properties":{"id":80503035,"YEAR":2016,"STREET1":"FINCH AVE E","STREET2":"SKYMARK DR"}},
{"type":"Feature","geometry":{"type":"Point","coordinates":[-79.40789029,43.68534538]},"properties":{"id":5378237,"YEAR":2008,"STREET1":"ST CLAIR AVE W","STREET2":"RUSSELL HILL RD"}},
{"type":"Feature","geometry":{"type":"Point","coordinates":[-79.26276789,43.8088146]},"properties":{"id":7895501,"YEAR":2013,"STREET1":"SANDHURST CRCL","STREET2":"FINCH AVE E"}},
{"type":"Feature","geometry":{"type":"Point","coordinates":[-79.26276789,43.8088146]},"properties":{"id":7895502,"YEAR":2013,"STREET1":"SANDHURST CRCL","STREET2":"FINCH AVE E"}},
{"type":"Feature","geometry":{"type":"Point","coordinates":[-79.22839029,43.75904538]},"properties":{"id":4275835,"YEAR":2007,"STREET1":"3495 LAWRENCE Aven E","STREET2":""}},
{"type":"Feature","geometry":{"type":"Point","coordinates":[-79.35227595,43.79315145999999]},"properties":{"id":80546834,"YEAR":2016,"STREET1":"FINCH AVE E","STREET2":"SKYMARK DR"}},
{"type":"Feature","geometry":{"type":"Point","coordinates":[-79.54239029,43.75204537999999]},"properties":{"id":4125725,"YEAR":2007,"STREET1":"FINCH AVE W","STREET2":"WESTON RD"}},
{"type":"Feature","geometry":{"type":"Point","coordinates":[-79.36689029,43.65424538]},"properties":{"id":5332461,"YEAR":2008,"STREET1":"ONTARIO ST","STREET2":"RICHMOND ST E"}},
{"type":"Feature","geometry":{"type":"Point","coordinates":[-79.37879029,43.74974538]},"properties":{"id":5213308,"YEAR":2009,"STREET1":"YORK MILLS RD","STREET2":"HARRISON RD"}},
{"type":"Feature","geometry":{"type":"Point","coordinates":[-79.27019129,43.711944179999996]},"properties":{"id":7780425,"YEAR":2013,"STREET1":"550 BIRCHMOUNT RD","STREET2":""}},
{"type":"Feature","geometry":{"type":"Point","coordinates":[-79.41389029,43.68834538]},"properties":{"id":5792230,"YEAR":2009,"STREET1":"RELMAR RD","STREET2":"LONSDALE RD"}},
{"type":"Feature","geometry":{"type":"Point","coordinates":[-79.44089029000001,43.69764538]},"properties":{"id":7470483,"YEAR":2012,"STREET1":"EGLINTON Ave W","STREET2":"ALAMEDA Ave"}},
{"type":"Feature","geometry":{"type":"Point","coordinates":[-79.46319029,43.674045379999995]},"properties":{"id":5228974,"YEAR":2009,"STREET1":"TOWNSLEY ST","STREET2":"OLD WESTON RD"}},
{"type":"Feature","geometry":{"type":"Point","coordinates":[-79.41389029,43.65074538]},"properties":{"id":6699902,"YEAR":2011,"STREET1":"DUNDAS ST W","STREET2":"GRACE ST"}},
{"type":"Feature","geometry":{"type":"Point","coordinates":[-79.43368922,43.64974554]},"properties":{"id":7781197,"YEAR":2013,"STREET1":"DUNDAS ST W","STREET2":"SHERIDAN AVE"}},
{"type":"Feature","geometry":{"type":"Point","coordinates":[-79.34879029,43.68944538]},"properties":{"id":6626815,"YEAR":2011,"STREET1":"PAPE Aven","STREET2":"COSBURN Aven"}},
{"type":"Feature","geometry":{"type":"Point","coordinates":[-79.42969128999998,43.645095379999994]},"properties":{"id":80786402,"YEAR":2017,"STREET1":"DUFFERIN ST","STREET2":"ALMA AV"}},
{"type":"Feature","geometry":{"type":"Point","coordinates":[-79.43359029,43.65524537999999]},"properties":{"id":5322182,"YEAR":2008,"STREET1":"DUFFERIN ST","STREET2":"SYLVAN AVE"}},
{"type":"Feature","geometry":{"type":"Point","coordinates":[-79.35469029,43.792645379999996]},"properties":{"id":4405620,"YEAR":2007,"STREET1":"DON MILLS Road","STREET2":"FINCH Aven E"}},
{"type":"Feature","geometry":{"type":"Point","coordinates":[-79.47819029,43.65074538]},"properties":{"id":4244806,"YEAR":2007,"STREET1":"BLOOR ST W","STREET2":"DURIE ST"}},
{"type":"Feature","geometry":{"type":"Point","coordinates":[-79.43269029000001,43.642345379999995]},"properties":{"id":6161946,"YEAR":2010,"STREET1":"NOBLE ST","STREET2":"BROCK AVE"}},
{"type":"Feature","geometry":{"type":"Point","coordinates":[-79.35135279000002,43.66245611]},"properties":{"id":7868316,"YEAR":2013,"STREET1":"BROADVIEW AVE","STREET2":"DUNDAS ST E"}},
{"type":"Feature","geometry":{"type":"Point","coordinates":[-79.47915278,43.70828206999999]},"properties":{"id":80509707,"YEAR":2015,"STREET1":"LAWRENCE AVE W","STREET2":"KEELE ST"}},
{"type":"Feature","geometry":{"type":"Point","coordinates":[-79.24805079000001,43.73662526999999]},"properties":{"id":80775800,"YEAR":2017,"STREET1":"EGLINTON AVE E","STREET2":"BRIMLEY RD"}},
{"type":"Feature","geometry":{"type":"Point","coordinates":[-79.33642206,43.816787319999996]},"properties":{"id":80774688,"YEAR":2017,"STREET1":"PHARMACY AVE","STREET2":"STEELES AVE E"}},
{"type":"Feature","geometry":{"type":"Point","coordinates":[-79.22419028999998,43.80444537999999]},"properties":{"id":6617069,"YEAR":2011,"STREET1":"TAPSCOTT RD","STREET2":"WASHBURN WAY"}},
{"type":"Feature","geometry":{"type":"Point","coordinates":[-79.49949029,43.66694537999999]},"properties":{"id":5371850,"YEAR":2008,"STREET1":"SCARLETT RD","STREET2":"BERNICE CRES"}},
{"type":"Feature","geometry":{"type":"Point","coordinates":[-79.52689029,43.64784537999999]},"properties":{"id":4164719,"YEAR":2007,"STREET1":"CENTRAL PARK RDWY Road","STREET2":"CORDOVA AVE"}},
{"type":"Feature","geometry":{"type":"Point","coordinates":[-79.42939029000001,43.66114538]},"properties":{"id":5226632,"YEAR":2009,"STREET1":"DOVERCOURT RD","STREET2":"BLOOR ST W"}},
{"type":"Feature","geometry":{"type":"Point","coordinates":[-79.43659029,43.669545379999995]},"properties":{"id":6255103,"YEAR":2010,"STREET1":"BARTLETT AVE","STREET2":"DUPONT ST"}},
{"type":"Feature","geometry":{"type":"Point","coordinates":[-79.57079029,43.63354537999999]},"properties":{"id":6222290,"YEAR":2010,"STREET1":"BLOOR ST W","STREET2":"MARKLAND DR"}},
{"type":"Feature","geometry":{"type":"Point","coordinates":[-79.35472498,43.79265173]},"properties":{"id":80499345,"YEAR":2016,"STREET1":"FINCH AVE E","STREET2":"DON MILLS RD"}},
{"type":"Feature","geometry":{"type":"Point","coordinates":[-79.34849177000001,43.66634710999998]},"properties":{"id":5807227,"YEAR":2009,"STREET1":"GERRARD ST E","STREET2":"DE GRASSI ST"}},
{"type":"Feature","geometry":{"type":"Point","coordinates":[-79.41449029,43.79924537999999]},"properties":{"id":5420713,"YEAR":2008,"STREET1":"STEELES AVE E","STREET2":"WILLOWDALE AVE"}},
{"type":"Feature","geometry":{"type":"Point","coordinates":[-79.28928766999998,43.78304631999998]},"properties":{"id":6201516,"YEAR":2010,"STREET1":"SHEPPARD AVE E","STREET2":"KENNEDY RD"}},
{"type":"Feature","geometry":{"type":"Point","coordinates":[-79.37739029,43.64784537999999]},"properties":{"id":7799454,"YEAR":2013,"STREET1":"YONGE ST","STREET2":"WELLINGTON ST W"}},
{"type":"Feature","geometry":{"type":"Point","coordinates":[-79.36952601,43.66810187]},"properties":{"id":80632109,"YEAR":2016,"STREET1":"WELLESLEY ST E","STREET2":"PARLIAMENT ST"}},
{"type":"Feature","geometry":{"type":"Point","coordinates":[-79.39389429,43.71057471]},"properties":{"id":80175409,"YEAR":2014,"STREET1":"REDPATH AVE","STREET2":"BROADWAY AVE"}},
{"type":"Feature","geometry":{"type":"Point","coordinates":[-79.45759029,43.67474538]},"properties":{"id":5413938,"YEAR":2008,"STREET1":"ST CLAIR AVE W","STREET2":"LAUGHTON AVE"}},
{"type":"Feature","geometry":{"type":"Point","coordinates":[-79.45759029,43.67474538]},"properties":{"id":5413939,"YEAR":2008,"STREET1":"ST CLAIR AVE W","STREET2":"LAUGHTON AVE"}},
{"type":"Feature","geometry":{"type":"Point","coordinates":[-79.43869029,43.65924538]},"properties":{"id":5444572,"YEAR":2008,"STREET1":"BLOOR ST W","STREET2":"BROCK AVE"}},
{"type":"Feature","geometry":{"type":"Point","coordinates":[-79.40209029,43.66304538]},"properties":{"id":5382062,"YEAR":2008,"STREET1":"SPADINA Aven","STREET2":"HARBORD Stre"}},
{"type":"Feature","geometry":{"type":"Point","coordinates":[-79.39619029,43.65334538]},"properties":{"id":6633069,"YEAR":2011,"STREET1":"HURON ST","STREET2":"DUNDAS ST W"}},
{"type":"Feature","geometry":{"type":"Point","coordinates":[-79.43109029,43.72504538]},"properties":{"id":7850497,"YEAR":2013,"STREET1":"BATHURST ST","STREET2":"FAIRLAWN AVE"}},
{"type":"Feature","geometry":{"type":"Point","coordinates":[-79.39087305,43.77930410999999]},"properties":{"id":80756919,"YEAR":2017,"STREET1":"BAYVIEW AVE","STREET2":"BURLEIGH HEIGHTS DR"}},
{"type":"Feature","geometry":{"type":"Point","coordinates":[-79.39087305,43.77930410999999]},"properties":{"id":80756920,"YEAR":2017,"STREET1":"BAYVIEW AVE","STREET2":"BURLEIGH HEIGHTS DR"}},
{"type":"Feature","geometry":{"type":"Point","coordinates":[-79.40319029,43.64514537999999]},"properties":{"id":7474276,"YEAR":2012,"STREET1":"BATHURST ST","STREET2":"ADELAIDE ST W"}},
{"type":"Feature","geometry":{"type":"Point","coordinates":[-79.38979029,43.646545379999985]},"properties":{"id":7487660,"YEAR":2012,"STREET1":"JOHN ST","STREET2":"KING ST W"}},
{"type":"Feature","geometry":{"type":"Point","coordinates":[-79.39619029,43.69614538]},"properties":{"id":4195361,"YEAR":2007,"STREET1":"YONGE ST","STREET2":"MERTON ST"}},
{"type":"Feature","geometry":{"type":"Point","coordinates":[-79.41399775,43.78960379000001]},"properties":{"id":80485352,"YEAR":2016,"STREET1":"WEDGEWOOD DR","STREET2":"TOBRUK CRES"}},
{"type":"Feature","geometry":{"type":"Point","coordinates":[-79.44969029,43.74804537999999]},"properties":{"id":6118129,"YEAR":2010,"STREET1":"FAYWOOD Boul","STREET2":"BAINBRIDGE Aven"}},
{"type":"Feature","geometry":{"type":"Point","coordinates":[-79.30009029,43.825345379999995]},"properties":{"id":6217308,"YEAR":2010,"STREET1":"STEELES AVE E","STREET2":"OLD KENNEDY RD"}},
{"type":"Feature","geometry":{"type":"Point","coordinates":[-79.30009029,43.825345379999995]},"properties":{"id":6217309,"YEAR":2010,"STREET1":"STEELES AVE E","STREET2":"OLD KENNEDY RD"}},
{"type":"Feature","geometry":{"type":"Point","coordinates":[-79.41229029,43.78044537999999]},"properties":{"id":6677316,"YEAR":2011,"STREET1":"FINCH AVE E","STREET2":"KENNETH AVE"}},
{"type":"Feature","geometry":{"type":"Point","coordinates":[-79.36719029,43.71304538]},"properties":{"id":7495134,"YEAR":2012,"STREET1":"EGLINTON AVE E","STREET2":"SUTHERLAND DR"}},
{"type":"Feature","geometry":{"type":"Point","coordinates":[-79.37576685,43.64744527999999]},"properties":{"id":80155633,"YEAR":2014,"STREET1":"FRONT ST E","STREET2":"SCOTT ST"}},
{"type":"Feature","geometry":{"type":"Point","coordinates":[-79.31229029,43.82244538]},"properties":{"id":6280246,"YEAR":2010,"STREET1":"STEELES AVE E","STREET2":"PUTNAM  GT"}},
{"type":"Feature","geometry":{"type":"Point","coordinates":[-79.45578394,43.670325829999996]},"properties":{"id":80151975,"YEAR":2014,"STREET1":"DAVENPORT RD","STREET2":"LAUGHTON AVE"}},
{"type":"Feature","geometry":{"type":"Point","coordinates":[-79.39712916,43.66096456999999]},"properties":{"id":80632252,"YEAR":2016,"STREET1":"ST GEORGE ST","STREET2":"RUSSELL ST"}},
{"type":"Feature","geometry":{"type":"Point","coordinates":[-79.56139029,43.735345379999984]},"properties":{"id":4159140,"YEAR":2007,"STREET1":"ALBION RD","STREET2":"RIVERDALE DR"}},
{"type":"Feature","geometry":{"type":"Point","coordinates":[-79.56139029,43.735345379999984]},"properties":{"id":4159141,"YEAR":2007,"STREET1":"ALBION RD","STREET2":"RIVERDALE DR"}},
{"type":"Feature","geometry":{"type":"Point","coordinates":[-79.44319029,43.75454538000001]},"properties":{"id":5255426,"YEAR":2009,"STREET1":"SHEPPARD AVE W","STREET2":"YEOMANS RD"}},
{"type":"Feature","geometry":{"type":"Point","coordinates":[-79.398594,43.654346069999995]},"properties":{"id":6168213,"YEAR":2010,"STREET1":"SPADINA AVE","STREET2":"ST ANDREW ST"}},
{"type":"Feature","geometry":{"type":"Point","coordinates":[-79.37789029,43.66524538]},"properties":{"id":7448933,"YEAR":2012,"STREET1":"MAITLAND PL","STREET2":"JARVIS ST"}},
{"type":"Feature","geometry":{"type":"Point","coordinates":[-79.29679029,43.68934538]},"properties":{"id":6096196,"YEAR":2010,"STREET1":"DANFORTH AVE","STREET2":"DAWES RD"}},
{"type":"Feature","geometry":{"type":"Point","coordinates":[-79.58940516,43.732013299999984]},"properties":{"id":80501999,"YEAR":2016,"STREET1":"JOHN GARLAND BLVD","STREET2":"MARTIN GROVE RD"}},
{"type":"Feature","geometry":{"type":"Point","coordinates":[-79.26719029,43.751045379999994]},"properties":{"id":5324254,"YEAR":2008,"STREET1":"2450 LAWRENCE AVE E","STREET2":""}},
{"type":"Feature","geometry":{"type":"Point","coordinates":[-79.39889029,43.652745380000006]},"properties":{"id":6176154,"YEAR":2010,"STREET1":"519 DUNDAS ST W","STREET2":""}},
{"type":"Feature","geometry":{"type":"Point","coordinates":[-79.44896326,43.71748694]},"properties":{"id":80222021,"YEAR":2014,"STREET1":"BLOSSOMFIELD DR","STREET2":"DANE AVE"}},
{"type":"Feature","geometry":{"type":"Point","coordinates":[-79.47229395,43.636390289999994]},"properties":{"id":80245220,"YEAR":2015,"STREET1":"THE QUEENSWAY","STREET2":"SOUTH KINGSWAY"}},
{"type":"Feature","geometry":{"type":"Point","coordinates":[-79.398594,43.70794638]},"properties":{"id":7402512,"YEAR":2012,"STREET1":"YONGE ST","STREET2":"ROEHAMPTON AVE"}},
{"type":"Feature","geometry":{"type":"Point","coordinates":[-79.35225306,43.79309042]},"properties":{"id":7842031,"YEAR":2013,"STREET1":"FINCH AVE E","STREET2":"SKYMARK DR"}},
{"type":"Feature","geometry":{"type":"Point","coordinates":[-79.28039028999999,43.82984538000001]},"properties":{"id":5303554,"YEAR":2009,"STREET1":"STEELES AVE E","STREET2":"STRAWBERRY HILLS DR"}},
{"type":"Feature","geometry":{"type":"Point","coordinates":[-79.29594813,43.708705499999986]},"properties":{"id":80236876,"YEAR":2015,"STREET1":"VICTORIA PARK AVE","STREET2":"ST CLAIR AVE E"}},
{"type":"Feature","geometry":{"type":"Point","coordinates":[-79.50360498999999,43.76023825]},"properties":{"id":80498706,"YEAR":2016,"STREET1":"FINCH AVE W","STREET2":"TOBERMORY DR"}},
{"type":"Feature","geometry":{"type":"Point","coordinates":[-79.56429029,43.654945379999994]},"properties":{"id":7514858,"YEAR":2012,"STREET1":"RATHBURN RD","STREET2":"THE EAST MALL"}},
{"type":"Feature","geometry":{"type":"Point","coordinates":[-79.35869029,43.67754537999999]},"properties":{"id":7394179,"YEAR":2012,"STREET1":"ERINDALE Aven","STREET2":"BROADVIEW Aven"}},
{"type":"Feature","geometry":{"type":"Point","coordinates":[-79.30019029,43.80174537999999]},"properties":{"id":7840510,"YEAR":2013,"STREET1":"41 WAYSIDE Ave","STREET2":""}},
{"type":"Feature","geometry":{"type":"Point","coordinates":[-79.42775355,43.70051915999999]},"properties":{"id":7884436,"YEAR":2013,"STREET1":"CHILTERN HILL RD","STREET2":"EGLINTON AVE W"}},
{"type":"Feature","geometry":{"type":"Point","coordinates":[-79.38077174,43.649821839999994]},"properties":{"id":80657505,"YEAR":2017,"STREET1":"ADELAIDE ST W","STREET2":"BAY ST"}},
{"type":"Feature","geometry":{"type":"Point","coordinates":[-79.40389029,43.64724537999999]},"properties":{"id":6583562,"YEAR":2011,"STREET1":"QUEEN ST W","STREET2":"BATHURST ST"}},
{"type":"Feature","geometry":{"type":"Point","coordinates":[-79.38659029000002,43.65084538000001]},"properties":{"id":5807575,"YEAR":2009,"STREET1":"QUEEN St W","STREET2":"UNIVERSITY Ave"}},
{"type":"Feature","geometry":{"type":"Point","coordinates":[-79.38659029000002,43.65084538000001]},"properties":{"id":5807576,"YEAR":2009,"STREET1":"QUEEN St W","STREET2":"UNIVERSITY Ave"}},
{"type":"Feature","geometry":{"type":"Point","coordinates":[-79.38659029000002,43.65084538000001]},"properties":{"id":5807577,"YEAR":2009,"STREET1":"QUEEN St W","STREET2":"UNIVERSITY Ave"}},
{"type":"Feature","geometry":{"type":"Point","coordinates":[-79.45685969000002,43.723784999999985]},"properties":{"id":80494947,"YEAR":2015,"STREET1":"DUFFERIN ST","STREET2":"CARTWRIGHT AVE"}},
{"type":"Feature","geometry":{"type":"Point","coordinates":[-79.42613611,43.7042652]},"properties":{"id":7887927,"YEAR":2013,"STREET1":"SHALLMAR BLVD","STREET2":"BATHURST ST"}},
{"type":"Feature","geometry":{"type":"Point","coordinates":[-79.38719029,43.66434537999999]},"properties":{"id":5041367,"YEAR":2009,"STREET1":"BAY ST","STREET2":"WELLESLEY ST W"}},
{"type":"Feature","geometry":{"type":"Point","coordinates":[-79.26859029,43.73384537999999]},"properties":{"id":7504890,"YEAR":2012,"STREET1":"KENNEDY Rd","STREET2":"TREVERTON Dr"}},
{"type":"Feature","geometry":{"type":"Point","coordinates":[-79.25155268,43.75427206]},"properties":{"id":7882759,"YEAR":2013,"STREET1":"LAWRENCE Ave E","STREET2":"BARRYMORE Rd"}},
{"type":"Feature","geometry":{"type":"Point","coordinates":[-79.36700830999999,43.6514736]},"properties":{"id":80502826,"YEAR":2016,"STREET1":"KING ST E","STREET2":"PRINCESS ST"}},
{"type":"Feature","geometry":{"type":"Point","coordinates":[-79.43779029,43.643445379999996]},"properties":{"id":7514498,"YEAR":2012,"STREET1":"LANSDOWNE AVE","STREET2":"SEAFORTH AVE"}},
{"type":"Feature","geometry":{"type":"Point","coordinates":[-79.26849029,43.70644538]},"properties":{"id":6198914,"YEAR":2010,"STREET1":"DANFORTH RD","STREET2":"BIRCHMOUNT RD"}},
{"type":"Feature","geometry":{"type":"Point","coordinates":[-79.59639029,43.68674538]},"properties":{"id":6703039,"YEAR":2011,"STREET1":"DIXON RD","STREET2":"CARLINGVIEW DR"}},
{"type":"Feature","geometry":{"type":"Point","coordinates":[-79.28512964999999,43.7111431]},"properties":{"id":80000023,"YEAR":2014,"STREET1":"ST CLAIR AVE E","STREET2":"HERRON AVE"}},
{"type":"Feature","geometry":{"type":"Point","coordinates":[-79.41219029,43.677645379999994]},"properties":{"id":5380768,"YEAR":2008,"STREET1":"19 LYNDHURST CRT","STREET2":""}},
{"type":"Feature","geometry":{"type":"Point","coordinates":[-79.41069029,43.76034538]},"properties":{"id":5293513,"YEAR":2009,"STREET1":"4777 YONGE ST","STREET2":""}},
{"type":"Feature","geometry":{"type":"Point","coordinates":[-79.58199029000001,43.74324538]},"properties":{"id":6716775,"YEAR":2011,"STREET1":"FINCH Aven W","STREET2":"KIPLING Aven"}},
{"type":"Feature","geometry":{"type":"Point","coordinates":[-79.39702997,43.700286469999995]},"properties":{"id":7883322,"YEAR":2013,"STREET1":"YONGE St","STREET2":"BELSIZE Dr"}},
{"type":"Feature","geometry":{"type":"Point","coordinates":[-79.26789484,43.73213156]},"properties":{"id":80626766,"YEAR":2014,"STREET1":"EGLINTON AVE E","STREET2":"KENNEDY RD"}},
{"type":"Feature","geometry":{"type":"Point","coordinates":[-79.38977442,43.77432210999999]},"properties":{"id":80255265,"YEAR":2015,"STREET1":"BAYVIEW AVE","STREET2":"CITATION DR"}},
{"type":"Feature","geometry":{"type":"Point","coordinates":[-79.30141077,43.724738679999994]},"properties":{"id":80772737,"YEAR":2017,"STREET1":"EGLINTON AVE E","STREET2":"VICTORIA PARK AVE"}},
{"type":"Feature","geometry":{"type":"Point","coordinates":[-79.31779029,43.77654538]},"properties":{"id":5398249,"YEAR":2008,"STREET1":"SHEPPARD AVE E","STREET2":"PHARMACY AVE"}},
{"type":"Feature","geometry":{"type":"Point","coordinates":[-79.45463953,43.64097554999999]},"properties":{"id":80563588,"YEAR":2016,"STREET1":"PARKSIDE DR","STREET2":"SPRING RD"}},
{"type":"Feature","geometry":{"type":"Point","coordinates":[-79.40948878,43.65609700999999]},"properties":{"id":80566371,"YEAR":2016,"STREET1":"486 COLLEGE ST","STREET2":""}},
{"type":"Feature","geometry":{"type":"Point","coordinates":[-79.40948878,43.65609700999999]},"properties":{"id":80566415,"YEAR":2016,"STREET1":"486 COLLEGE ST","STREET2":""}},
{"type":"Feature","geometry":{"type":"Point","coordinates":[-79.54468928,43.632106379999996]},"properties":{"id":80563421,"YEAR":2016,"STREET1":"DUNDAS ST W","STREET2":"SHORNCLIFFE RD"}},
{"type":"Feature","geometry":{"type":"Point","coordinates":[-79.25509029,43.72744537999999]},"properties":{"id":5050973,"YEAR":2009,"STREET1":"MIDLAND AVE","STREET2":"WOLFE AVE"}},
{"type":"Feature","geometry":{"type":"Point","coordinates":[-79.36929029,43.672945379999994]},"properties":{"id":5795671,"YEAR":2009,"STREET1":"BLOOR ST E","STREET2":"CASTLE FRANK CRES"}},
{"type":"Feature","geometry":{"type":"Point","coordinates":[-79.39659029,43.649445379999996]},"properties":{"id":6697371,"YEAR":2011,"STREET1":"SPADINA AVE","STREET2":"BULWER ST"}},
{"type":"Feature","geometry":{"type":"Point","coordinates":[-79.29249028999999,43.782345379999995]},"properties":{"id":7559354,"YEAR":2012,"STREET1":"3850 SHEPPARD AVE E","STREET2":""}},
{"type":"Feature","geometry":{"type":"Point","coordinates":[-79.34788904,43.77711828]},"properties":{"id":80559934,"YEAR":2015,"STREET1":"DON MILLS RD","STREET2":"LEITH HILL RD"}},
{"type":"Feature","geometry":{"type":"Point","coordinates":[-79.39579029,43.64884538]},"properties":{"id":6229027,"YEAR":2010,"STREET1":"QUEEN Stre W","STREET2":"SPADINA Aven"}},
{"type":"Feature","geometry":{"type":"Point","coordinates":[-79.39329029,43.666745379999995]},"properties":{"id":6692515,"YEAR":2011,"STREET1":"QUEENS PARK","STREET2":"QUEENS PARK CRES W"}},
{"type":"Feature","geometry":{"type":"Point","coordinates":[-79.2222558,43.75101431]},"properties":{"id":80564862,"YEAR":2016,"STREET1":"MARKHAM RD","STREET2":"BLAKEMANOR BLVD"}},
{"type":"Feature","geometry":{"type":"Point","coordinates":[-79.35718165,43.6828533]},"properties":{"id":80782620,"YEAR":2017,"STREET1":"BROADVIEW AVE","STREET2":"NEALON AVE"}},
{"type":"Feature","geometry":{"type":"Point","coordinates":[-79.32299029,43.77524538]},"properties":{"id":6915794,"YEAR":2011,"STREET1":"SHEPPARD AVE E","STREET2":"VICTORIA PARK AVE"}},
{"type":"Feature","geometry":{"type":"Point","coordinates":[-79.35349029,43.66524538]},"properties":{"id":5320671,"YEAR":2008,"STREET1":"HAMILTON ST","STREET2":"GERRARD ST E"}},
{"type":"Feature","geometry":{"type":"Point","coordinates":[-79.48609029000002,43.69464538]},"properties":{"id":6702824,"YEAR":2011,"STREET1":"BLACK CREEK DR","STREET2":"TRETHEWEY DR"}},
{"type":"Feature","geometry":{"type":"Point","coordinates":[-79.54411707000001,43.599227510000006]},"properties":{"id":80719031,"YEAR":2016,"STREET1":"BROWNS LINE","STREET2":"WOODBURY RD"}},
{"type":"Feature","geometry":{"type":"Point","coordinates":[-79.41826258,43.683093629999995]},"properties":{"id":5367500,"YEAR":2008,"STREET1":"ST CLAIR AVE W","STREET2":"BATHURST ST"}},
{"type":"Feature","geometry":{"type":"Point","coordinates":[-79.48249029,43.72854538]},"properties":{"id":5420533,"YEAR":2008,"STREET1":"KEELE ST","STREET2":"VICTORY DR"}},
{"type":"Feature","geometry":{"type":"Point","coordinates":[-79.40219029,43.64754538]},"properties":{"id":6599839,"YEAR":2011,"STREET1":"QUEEN ST W","STREET2":"RYERSON AVE"}},
{"type":"Feature","geometry":{"type":"Point","coordinates":[-79.44279029000002,43.69724538]},"properties":{"id":4143217,"YEAR":2007,"STREET1":"EGLINTON AVE W","STREET2":"OAKWOOD AVE"}},
{"type":"Feature","geometry":{"type":"Point","coordinates":[-79.40359029,43.635945379999995]},"properties":{"id":6675314,"YEAR":2011,"STREET1":"LAKE SHORE BLVD W","STREET2":"bastion  st"}},
{"type":"Feature","geometry":{"type":"Point","coordinates":[-79.24679029,43.75524538]},"properties":{"id":6679798,"YEAR":2011,"STREET1":"LAWRENCE Ave E","STREET2":"VALPARAISO Ave"}},
{"type":"Feature","geometry":{"type":"Point","coordinates":[-79.47279029,43.68494538]},"properties":{"id":7829979,"YEAR":2013,"STREET1":"KEELE ST","STREET2":"DONALD AVE"}},
{"type":"Feature","geometry":{"type":"Point","coordinates":[-79.42649029,43.77734537999999]},"properties":{"id":4292286,"YEAR":2007,"STREET1":"FINCH AVE W","STREET2":"EDITHVALE DR"}},
{"type":"Feature","geometry":{"type":"Point","coordinates":[-79.23239028999998,43.725145379999994]},"properties":{"id":7829770,"YEAR":2013,"STREET1":"MCCOWAN RD","STREET2":"KINGSTON RD"}},
{"type":"Feature","geometry":{"type":"Point","coordinates":[-79.31969029,43.67374538]},"properties":{"id":4259578,"YEAR":2007,"STREET1":"283 COXWELL AVE","STREET2":""}},
{"type":"Feature","geometry":{"type":"Point","coordinates":[-79.3802682,43.64863928]},"properties":{"id":5219066,"YEAR":2009,"STREET1":"KING ST W","STREET2":"BAY ST"}},
{"type":"Feature","geometry":{"type":"Point","coordinates":[-79.24615869999998,43.73708684999999]},"properties":{"id":80254175,"YEAR":2015,"STREET1":"EGLINTON AVE E","STREET2":"DANFORTH RD"}},
{"type":"Feature","geometry":{"type":"Point","coordinates":[-79.38574629,43.80556837999999]},"properties":{"id":80785716,"YEAR":2017,"STREET1":"STEELES AV E","STREET2":"LAURELEAF RD S"}},
{"type":"Feature","geometry":{"type":"Point","coordinates":[-79.3031045,43.72583348999999]},"properties":{"id":80000054,"YEAR":2014,"STREET1":"VICTORIA PARK AVE","STREET2":"EGLINTON AVE E"}},
{"type":"Feature","geometry":{"type":"Point","coordinates":[-79.42703637999999,43.70066794000001]},"properties":{"id":80565361,"YEAR":2016,"STREET1":"EGLINTON AVE W","STREET2":"CHILTERN HILL RD"}},
{"type":"Feature","geometry":{"type":"Point","coordinates":[-79.43138529,43.70067937999999]},"properties":{"id":80787228,"YEAR":2017,"STREET1":"OLD PARK RD","STREET2":"WEMBLEY RD"}},
{"type":"Feature","geometry":{"type":"Point","coordinates":[-79.28099029,43.712045379999985]},"properties":{"id":4235488,"YEAR":2007,"STREET1":"ST CLAIR AVE E","STREET2":"WARDEN AVE"}},
{"type":"Feature","geometry":{"type":"Point","coordinates":[-79.41279029,43.768845379999995]},"properties":{"id":4197859,"YEAR":2007,"STREET1":"YONGE ST","STREET2":"PRINCESS AVE"}},
{"type":"Feature","geometry":{"type":"Point","coordinates":[-79.20449029,43.76424537999999]},"properties":{"id":4239967,"YEAR":2007,"STREET1":"3950 LAWRENCE AVE E","STREET2":""}},
{"type":"Feature","geometry":{"type":"Point","coordinates":[-79.60669029,43.73074538]},"properties":{"id":5209642,"YEAR":2009,"STREET1":"HUMBER COLLEGE Boul","STREET2":"WINDWOOD Driv"}},
{"type":"Feature","geometry":{"type":"Point","coordinates":[-79.24249029000002,43.79304538000001]},"properties":{"id":5792492,"YEAR":2009,"STREET1":"5050 SHEPPARD AVE E","STREET2":""}},
{"type":"Feature","geometry":{"type":"Point","coordinates":[-79.25314722,43.73557623]},"properties":{"id":80707660,"YEAR":2015,"STREET1":"FALMOUTH AVE","STREET2":"EGLINTON AVE E"}},
{"type":"Feature","geometry":{"type":"Point","coordinates":[-79.30438624,43.77955206]},"properties":{"id":80250270,"YEAR":2015,"STREET1":"BAY MILLS BLVD","STREET2":"SHEPPARD AVE E"}},
{"type":"Feature","geometry":{"type":"Point","coordinates":[-79.34833918,43.689437469999994]},"properties":{"id":80632432,"YEAR":2016,"STREET1":"COSBURN AVE","STREET2":"PAPE AVE"}},
{"type":"Feature","geometry":{"type":"Point","coordinates":[-79.45989029,43.755345379999994]},"properties":{"id":7839650,"YEAR":2013,"STREET1":"WILSON HEIGHTS BLVD","STREET2":"WATERLOO AVE"}},
{"type":"Feature","geometry":{"type":"Point","coordinates":[-79.28359029,43.740345379999994]},"properties":{"id":6708761,"YEAR":2011,"STREET1":"CROUSE Rd","STREET2":"BIRCHMOUNT Rd"}},
{"type":"Feature","geometry":{"type":"Point","coordinates":[-79.31829028999998,43.726145380000006]},"properties":{"id":5353055,"YEAR":2008,"STREET1":"EGLINTON Aven E","STREET2":"CREDIT UNION Driv"}},
{"type":"Feature","geometry":{"type":"Point","coordinates":[-79.59559029,43.68674538]},"properties":{"id":6130852,"YEAR":2010,"STREET1":"CARLINGVIEW Driv","STREET2":"DIXON Road"}},
{"type":"Feature","geometry":{"type":"Point","coordinates":[-79.59559029,43.68674538]},"properties":{"id":6130853,"YEAR":2010,"STREET1":"CARLINGVIEW Driv","STREET2":"DIXON Road"}},
{"type":"Feature","geometry":{"type":"Point","coordinates":[-79.51249029,43.68554537999999]},"properties":{"id":6130932,"YEAR":2010,"STREET1":"RICHVIEW Road","STREET2":"SCARLETT Road"}},
{"type":"Feature","geometry":{"type":"Point","coordinates":[-79.28109029,43.69284538]},"properties":{"id":6708784,"YEAR":2011,"STREET1":"DANFORTH AVE","STREET2":"AUGUST AVE"}},
{"type":"Feature","geometry":{"type":"Point","coordinates":[-79.25119029,43.73604538]},"properties":{"id":7389961,"YEAR":2012,"STREET1":"EGLINTON AVE E","STREET2":"BIMBROK RD"}},
{"type":"Feature","geometry":{"type":"Point","coordinates":[-79.41919029,43.79474538]},"properties":{"id":6210759,"YEAR":2010,"STREET1":"6212 YONGE ST","STREET2":""}},
{"type":"Feature","geometry":{"type":"Point","coordinates":[-79.52149029,43.75844537999999]},"properties":{"id":6229105,"YEAR":2010,"STREET1":"50 YORK GATE BLVD","STREET2":""}},
{"type":"Feature","geometry":{"type":"Point","coordinates":[-79.39679346,43.687526299999995]},"properties":{"id":80000047,"YEAR":2014,"STREET1":"ST CLAIR AVE W","STREET2":"DEER PARK CRES"}},
{"type":"Feature","geometry":{"type":"Point","coordinates":[-79.24805079000001,43.73662526999999]},"properties":{"id":80632022,"YEAR":2015,"STREET1":"BRIMLEY RD","STREET2":"EGLINTON AVE E"}},
{"type":"Feature","geometry":{"type":"Point","coordinates":[-79.3763238,43.708694060000006]},"properties":{"id":80156696,"YEAR":2014,"STREET1":"BAYVIEW AVE","STREET2":"PARKHURST BLVD"}},
{"type":"Feature","geometry":{"type":"Point","coordinates":[-79.37491236,43.65117986999999]},"properties":{"id":80774963,"YEAR":2017,"STREET1":"ADELAIDE ST E","STREET2":"CHURCH ST"}},
{"type":"Feature","geometry":{"type":"Point","coordinates":[-79.34049028999999,43.68474538]},"properties":{"id":6649480,"YEAR":2011,"STREET1":"ALDWYCH AVE","STREET2":"DEWHURST BLVD"}},
{"type":"Feature","geometry":{"type":"Point","coordinates":[-79.50382624000001,43.70286902]},"properties":{"id":80492560,"YEAR":2015,"STREET1":"LAWRENCE AVE W","STREET2":"JANE ST"}},
{"type":"Feature","geometry":{"type":"Point","coordinates":[-79.54909029,43.750645379999995]},"properties":{"id":5397923,"YEAR":2008,"STREET1":"FINCH AVE W","STREET2":"JAYZEL DR"}},
{"type":"Feature","geometry":{"type":"Point","coordinates":[-79.34421168,43.73693044999999]},"properties":{"id":80721641,"YEAR":2016,"STREET1":"LAWRENCE AVE E","STREET2":"DON MILLS RD"}},
{"type":"Feature","geometry":{"type":"Point","coordinates":[-79.38709029000002,43.649845379999995]},"properties":{"id":6170900,"YEAR":2010,"STREET1":"RICHMOND ST W","STREET2":"SIMCOE ST"}},
{"type":"Feature","geometry":{"type":"Point","coordinates":[-79.53489029,43.71044538]},"properties":{"id":6595271,"YEAR":2011,"STREET1":"WESTON Road","STREET2":"MAPLE BUSH Aven"}},
{"type":"Feature","geometry":{"type":"Point","coordinates":[-79.34421168,43.73693044999999]},"properties":{"id":80721642,"YEAR":2016,"STREET1":"LAWRENCE AVE E","STREET2":"DON MILLS RD"}},
{"type":"Feature","geometry":{"type":"Point","coordinates":[-79.59259423999998,43.717261869999994]},"properties":{"id":80632430,"YEAR":2016,"STREET1":"137 QUEEN S PLATE  DR","STREET2":""}},
{"type":"Feature","geometry":{"type":"Point","coordinates":[-79.51269029,43.698845379999995]},"properties":{"id":7843404,"YEAR":2013,"STREET1":"1788 WESTON RD","STREET2":""}},
{"type":"Feature","geometry":{"type":"Point","coordinates":[-79.60189029,43.73154538]},"properties":{"id":4226029,"YEAR":2007,"STREET1":"HIGHWAY 27  N","STREET2":"HUMBER COLLEGE BLVD"}},
{"type":"Feature","geometry":{"type":"Point","coordinates":[-79.53479029,43.71034537999999]},"properties":{"id":6595923,"YEAR":2011,"STREET1":"WESTON RD","STREET2":"MAPLE BUSH AVE"}},
{"type":"Feature","geometry":{"type":"Point","coordinates":[-79.34421168,43.73693044999999]},"properties":{"id":80721643,"YEAR":2016,"STREET1":"LAWRENCE AVE E","STREET2":"DON MILLS RD"}},
{"type":"Feature","geometry":{"type":"Point","coordinates":[-79.55639029,43.60894538]},"properties":{"id":5315011,"YEAR":2008,"STREET1":"EVANS AVE","STREET2":"SHERWAY GT"}},
{"type":"Feature","geometry":{"type":"Point","coordinates":[-79.49957667000001,43.61905249]},"properties":{"id":80255643,"YEAR":2015,"STREET1":"PORTLAND ST","STREET2":"ROYAL YORK RD"}},
{"type":"Feature","geometry":{"type":"Point","coordinates":[-79.35849029,43.71144538]},"properties":{"id":5423029,"YEAR":2008,"STREET1":"BRENTCLIFFE RD","STREET2":"WICKSTEED AVE"}},
{"type":"Feature","geometry":{"type":"Point","coordinates":[-79.32769029,43.76064538]},"properties":{"id":7433629,"YEAR":2012,"STREET1":"YORK MILLS RD","STREET2":"FENSIDE DR"}},
{"type":"Feature","geometry":{"type":"Point","coordinates":[-79.30679028999998,43.68194538]},"properties":{"id":6628924,"YEAR":2011,"STREET1":"180 BROOKSIDE DR","STREET2":""}},
{"type":"Feature","geometry":{"type":"Point","coordinates":[-79.21887598,43.74311026]},"properties":{"id":80632040,"YEAR":2016,"STREET1":"EGLINTON AVE E","STREET2":"MARKHAM RD"}},
{"type":"Feature","geometry":{"type":"Point","coordinates":[-79.45499029,43.64194537999999]},"properties":{"id":4200236,"YEAR":2007,"STREET1":"PARKSIDE DR","STREET2":"GARDEN AVE"}},
{"type":"Feature","geometry":{"type":"Point","coordinates":[-79.46989029,43.76814537999999]},"properties":{"id":5414814,"YEAR":2008,"STREET1":"FINCH Ave W","STREET2":"DUFFERIN St"}},
{"type":"Feature","geometry":{"type":"Point","coordinates":[-79.36149029,43.65624537999999]},"properties":{"id":6131723,"YEAR":2010,"STREET1":"QUEEN Stre E","STREET2":"SACKVILLE Stre"}},
{"type":"Feature","geometry":{"type":"Point","coordinates":[-79.48549029,43.76464537999999]},"properties":{"id":6153553,"YEAR":2010,"STREET1":"ALEXDON RD","STREET2":"FINCH AVE W"}},
{"type":"Feature","geometry":{"type":"Point","coordinates":[-79.34029029,43.687645380000006]},"properties":{"id":5234286,"YEAR":2009,"STREET1":"DONLANDS AVE","STREET2":"MORTIMER AVE"}},
{"type":"Feature","geometry":{"type":"Point","coordinates":[-79.25809107000002,43.73454626]},"properties":{"id":7540964,"YEAR":2012,"STREET1":"MIDLAND AVE","STREET2":"EGLINTON AVE E"}},
{"type":"Feature","geometry":{"type":"Point","coordinates":[-79.25809107000002,43.73454626]},"properties":{"id":7540965,"YEAR":2012,"STREET1":"MIDLAND AVE","STREET2":"EGLINTON AVE E"}},
{"type":"Feature","geometry":{"type":"Point","coordinates":[-79.41319029000002,43.776945379999994]},"properties":{"id":7481293,"YEAR":2012,"STREET1":"BYNG AVE","STREET2":"DORIS AVE"}},
{"type":"Feature","geometry":{"type":"Point","coordinates":[-79.33601771,43.66903647]},"properties":{"id":80719262,"YEAR":2016,"STREET1":"1058 GERRARD ST E","STREET2":""}},
{"type":"Feature","geometry":{"type":"Point","coordinates":[-79.50637445999999,43.6187168]},"properties":{"id":80632343,"YEAR":2016,"STREET1":"MELROSE ST","STREET2":"GARROCH PL"}},
{"type":"Feature","geometry":{"type":"Point","coordinates":[-79.48639029,43.74474538]},"properties":{"id":7792187,"YEAR":2013,"STREET1":"SHEPPARD AVE W","STREET2":"KEELE ST"}},
{"type":"Feature","geometry":{"type":"Point","coordinates":[-79.24553309,43.73990590999998]},"properties":{"id":80154496,"YEAR":2014,"STREET1":"DANFORTH RD","STREET2":"TRUDELLE ST"}},
{"type":"Feature","geometry":{"type":"Point","coordinates":[-79.40909029000001,43.76574537999999]},"properties":{"id":6201189,"YEAR":2010,"STREET1":"DORIS AVE","STREET2":"HOLLYWOOD AVE"}},
{"type":"Feature","geometry":{"type":"Point","coordinates":[-79.39199029,43.643245379999996]},"properties":{"id":4266188,"YEAR":2007,"STREET1":"FRONT ST W","STREET2":"SPADINA AVE"}},
{"type":"Feature","geometry":{"type":"Point","coordinates":[-79.30054102,43.688438019999985]},"properties":{"id":7894406,"YEAR":2013,"STREET1":"DANFORTH AVE","STREET2":"BARRINGTON AVE"}},